{"type": "FeatureCollection", "features": [{"type": "Feature", "geometry": {"type": "Point", "coordinates": [13.38439, 52.52251]}, "properties": {"id": "1010010", "name": "Kita F.A.I.R.play", "phone-number": "+49302816473", "places": 69, "type": "Reguläre Einrichtung", "sponsor-id": "1224", "sponsor-name": "GFJ - gemeinnützige Gesellschaft für Familien- und Jugendhilfe mbH", "street": "Albrechtstr. 20", "zip-code": 10117, "lat": 52.52251, "lon": 13.38439, "planning-area-id": 1100308}}, {"type": "Feature", "geometry": {"type": "Point", "coordinates": [13.38211, 52.51174]}, "properties": {"id": "1010020", "name": "Kita Kinderwelt", "phone-number": "+49302291378", "places": 155, "type": "Reguläre Einrichtung", "sponsor-id": "1334", "sponsor-name": "Forum Soziale Dienste GmbH", "street": "An der Kolonnade 3", "zip-code": 10117, "lat": 52.51174, "lon": 13.38211, "planning-area-id": 1100205}}, {"type": "Feature", "geometry": {"type": "Point", "coordinates": [13.39925, 52.53523]}, "properties": {"id": "1010030", "name": "FRÖBEL Kindergarten Casa Fantasia", "phone-number": "+493048495184", "places": 69, "type": "Reguläre Einrichtung", "sponsor-id": "1227", "sponsor-name": "Fröbel Bildung und Erziehung gGmbH", "street": "Anklamer Str. 38", "zip-code": 10115, "lat": 52.53523, "lon": 13.39925, "planning-area-id": 1100416}}, {"type": "Feature", "geometry": {"type": "Point", "coordinates": [13.40497, 52.53212]}, "properties": {"id": "1010080", "name": "Kita Regenbogen", "phone-number": "+49304493238", "places": 91, "type": "Reguläre Einrichtung", "sponsor-id": "1202", "sponsor-name": "Pfefferwerk Stadtkultur gGmbH", "street": "Fehrbelliner Str. 80", "zip-code": 10119, "lat": 52.53212, "lon": 13.40497, "planning-area-id": 1100416}}, {"type": "Feature", "geometry": {"type": "Point", "coordinates": [13.40558, 52.5123]}, "properties": {"id": "1010100", "name": "FRÖBEL Kindergarten \"Schatzinsel\"", "phone-number": "+49302013788", "places": 234, "type": "Reguläre Einrichtung", "sponsor-id": "1227", "sponsor-name": "Fröbel Bildung und Erziehung gGmbH", "street": "Fischerinsel 8", "zip-code": 10179, "lat": 52.5123, "lon": 13.40558, "planning-area-id": 1100312}}, {"type": "Feature", "geometry": {"type": "Point", "coordinates": [13.38799, 52.51452]}, "properties": {"id": "1010110", "name": "Kita Französische Str. 16a u. 16b", "phone-number": "+49302089214", "places": 180, "type": "Reguläre Einrichtung", "sponsor-id": "1318", "sponsor-name": "Kinder im Kiez gGmbH", "street": "Französische Str. 16", "zip-code": 10117, "lat": 52.51452, "lon": 13.38799, "planning-area-id": 1100206}}, {"type": "Feature", "geometry": {"type": "Point", "coordinates": [13.38432, 52.52577]}, "properties": {"id": "1010130", "name": "Kita Pelikan", "phone-number": "+4930403662090", "places": 190, "type": "Reguläre Einrichtung", "sponsor-id": "1339", "sponsor-name": "Kinder- und Jugend der Volkssolidarität Berlin gGmbH", "street": "Friedrichstr. 129F", "zip-code": 10117, "lat": 52.52577, "lon": 13.38432, "planning-area-id": 1100308}}, {"type": "Feature", "geometry": {"type": "Point", "coordinates": [13.39207, 52.52971]}, "properties": {"id": "1010150", "name": "Kita Gartenstr. 107/Kigä City", "phone-number": "+49302828337", "places": 140, "type": "Reguläre Einrichtung", "sponsor-id": "120", "sponsor-name": "Kindergärten City", "street": "Gartenstr. 107", "zip-code": 10115, "lat": 52.52971, "lon": 13.39207, "planning-area-id": 1100415}}, {"type": "Feature", "geometry": {"type": "Point", "coordinates": [13.37518, 52.53115]}, "properties": {"id": "1010170", "name": "Kita Kinderakademie", "phone-number": "+49302824496", "places": 150, "type": "Reguläre Einrichtung", "sponsor-id": "1224", "sponsor-name": "GFJ - gemeinnützige Gesellschaft für Familien- und Jugendhilfe mbH", "street": "Habersaathstr. 13", "zip-code": 10115, "lat": 52.53115, "lon": 13.37518, "planning-area-id": 1100308}}, {"type": "Feature", "geometry": {"type": "Point", "coordinates": [13.42389, 52.51514]}, "properties": {"id": "1010180", "name": "Lichtenberger Straße 32/33", "phone-number": "+49302492179", "places": 190, "type": "Reguläre Einrichtung", "sponsor-id": "120", "sponsor-name": "Kindergärten City", "street": "Lichtenberger Str. 32", "zip-code": 10179, "lat": 52.51514, "lon": 13.42389, "planning-area-id": 1100311}}, {"type": "Feature", "geometry": {"type": "Point", "coordinates": [13.39688, 52.51188]}, "properties": {"id": "1010200", "name": "Kita Jerusalemer Str. 10/12/Kigä City", "phone-number": "+493020216803", "places": 185, "type": "Reguläre Einrichtung", "sponsor-id": "120", "sponsor-name": "Kindergärten City", "street": "Jerusalemer Str. 10", "zip-code": 10117, "lat": 52.51188, "lon": 13.39688, "planning-area-id": 1100207}}, {"type": "Feature", "geometry": {"type": "Point", "coordinates": [13.39916, 52.52806]}, "properties": {"id": "1010210", "name": "Kita Kleine Auguststr. 10/11Kigä City", "phone-number": "+49302826045", "places": 220, "type": "Reguläre Einrichtung", "sponsor-id": "120", "sponsor-name": "Kindergärten City", "street": "Kleine Auguststr. 11", "zip-code": 10119, "lat": 52.52806, "lon": 13.39916, "planning-area-id": 1100309}}, {"type": "Feature", "geometry": {"type": "Point", "coordinates": [13.4088, 52.52599]}, "properties": {"id": "1010250", "name": "Kita Max-Beer-Str. 24/26/Kigä City", "phone-number": "+49302476849", "places": 200, "type": "Reguläre Einrichtung", "sponsor-id": "120", "sponsor-name": "Kindergärten City", "street": "Max-Beer-Str. 24", "zip-code": 10119, "lat": 52.52599, "lon": 13.4088, "planning-area-id": 1100310}}, {"type": "Feature", "geometry": {"type": "Point", "coordinates": [13.42123, 52.52336]}, "properties": {"id": "1010280", "name": "FRÖBEL Kindergarten \"Traumzauberbaum\"", "phone-number": "+49302419156", "places": 240, "type": "Reguläre Einrichtung", "sponsor-id": "1227", "sponsor-name": "Fröbel Bildung und Erziehung gGmbH", "street": "Mollstr. 7A", "zip-code": 10178, "lat": 52.52336, "lon": 13.42123, "planning-area-id": 1100311}}, {"type": "Feature", "geometry": {"type": "Point", "coordinates": [13.39763, 52.51019]}, "properties": {"id": "1010330", "name": "Kita Umka", "phone-number": "+493017683176995", "places": 65, "type": "Reguläre Einrichtung", "sponsor-id": "8368", "sponsor-name": "MITRA bilinguale Kindergärten gemeinnützige GmbH", "street": "Leipziger Str. 47", "zip-code": 10117, "lat": 52.51019, "lon": 13.39763, "planning-area-id": 1100207}}, {"type": "Feature", "geometry": {"type": "Point", "coordinates": [13.40429, 52.53862]}, "properties": {"id": "1010360", "name": "Kita Schwedter Straße", "phone-number": "+49304493459", "places": 120, "type": "Reguläre Einrichtung", "sponsor-id": "1318", "sponsor-name": "Kinder im Kiez gGmbH", "street": "Schwedter Str. 232", "zip-code": 10435, "lat": 52.53862, "lon": 13.40429, "planning-area-id": 1100416}}, {"type": "Feature", "geometry": {"type": "Point", "coordinates": [13.4071, 52.52771]}, "properties": {"id": "1010390", "name": "Kita Pfiffikus", "phone-number": "+4930283057224", "places": 150, "type": "Reguläre Einrichtung", "sponsor-id": "1205", "sponsor-name": "BIK e.V. Berliner Institut für Kleinkindpädagogik und familienbegleitende Kinderbetreuung", "street": "Rückerstr. 2", "zip-code": 10119, "lat": 52.52771, "lon": 13.4071, "planning-area-id": 1100309}}, {"type": "Feature", "geometry": {"type": "Point", "coordinates": [13.41876, 52.50882]}, "properties": {"id": "1010410", "name": "Kita Trauminsel", "phone-number": "+49302794009", "places": 85, "type": "Reguläre Einrichtung", "sponsor-id": "1334", "sponsor-name": "Forum Soziale Dienste GmbH", "street": "Schmidstr. 2", "zip-code": 10179, "lat": 52.50882, "lon": 13.41876, "planning-area-id": 1100313}}, {"type": "Feature", "geometry": {"type": "Point", "coordinates": [13.41044, 52.50747]}, "properties": {"id": "1010450", "name": "Kita Villa Murkelmaier", "phone-number": "+49302792668", "places": 94, "type": "Reguläre Einrichtung", "sponsor-id": "1224", "sponsor-name": "GFJ - gemeinnützige Gesellschaft für Familien- und Jugendhilfe mbH", "street": "Sebastianstr. 22", "zip-code": 10179, "lat": 52.50747, "lon": 13.41044, "planning-area-id": 1100312}}, {"type": "Feature", "geometry": {"type": "Point", "coordinates": [13.41032, 52.50778]}, "properties": {"id": "1010460", "name": "Kita Pusteblume", "phone-number": "+49302792210", "places": 86, "type": "Reguläre Einrichtung", "sponsor-id": "1224", "sponsor-name": "GFJ - gemeinnützige Gesellschaft für Familien- und Jugendhilfe mbH", "street": "Sebastianstr. 23", "zip-code": 10179, "lat": 52.50778, "lon": 13.41032, "planning-area-id": 1100312}}, {"type": "Feature", "geometry": {"type": "Point", "coordinates": [13.40171, 52.53296]}, "properties": {"id": "1010470", "name": "Kita Veteranenstr. 10/Kigä City", "phone-number": "+493047378193", "places": 133, "type": "Reguläre Einrichtung", "sponsor-id": "120", "sponsor-name": "Kindergärten City", "street": "Veteranenstr. 10", "zip-code": 10119, "lat": 52.53296, "lon": 13.40171, "planning-area-id": 1100416}}, {"type": "Feature", "geometry": {"type": "Point", "coordinates": [13.42682, 52.52047]}, "properties": {"id": "1010500", "name": "Kita Weydemeyerstr. 20/21", "phone-number": "+49302419151", "places": 138, "type": "Reguläre Einrichtung", "sponsor-id": "120", "sponsor-name": "Kindergärten City", "street": "Weydemeyerstr. 20", "zip-code": 10178, "lat": 52.52047, "lon": 13.42682, "planning-area-id": 1100311}}, {"type": "Feature", "geometry": {"type": "Point", "coordinates": [13.40701, 52.53405]}, "properties": {"id": "1010550", "name": "Kita Oase", "phone-number": "+493044383661", "places": 95, "type": "Reguläre Einrichtung", "sponsor-id": "1202", "sponsor-name": "Pfefferwerk Stadtkultur gGmbH", "street": "Kastanienallee 63A", "zip-code": 10119, "lat": 52.53405, "lon": 13.40701, "planning-area-id": 1100416}}, {"type": "Feature", "geometry": {"type": "Point", "coordinates": [13.39669, 52.53336]}, "properties": {"id": "1010560", "name": "Kita St. Elisabeth", "phone-number": "+49304496527", "places": 125, "type": "Reguläre Einrichtung", "sponsor-id": "5425", "sponsor-name": "Ev. Kirchenkreisverband für Kindertageseinrichtungen Berlin Mitte-Nord", "street": "Elisabethkirchstr. 21", "zip-code": 10115, "lat": 52.53336, "lon": 13.39669, "planning-area-id": 1100415}}, {"type": "Feature", "geometry": {"type": "Point", "coordinates": [13.40503, 52.53542]}, "properties": {"id": "1010570", "name": "Zions-Kindergarten", "phone-number": "+493062737521", "places": 85, "type": "Reguläre Einrichtung", "sponsor-id": "5425", "sponsor-name": "Ev. Kirchenkreisverband für Kindertageseinrichtungen Berlin Mitte-Nord", "street": "Griebenowstr. 16", "zip-code": 10435, "lat": 52.53542, "lon": 13.40503, "planning-area-id": 1100416}}, {"type": "Feature", "geometry": {"type": "Point", "coordinates": [13.39912, 52.5251]}, "properties": {"id": "1010580", "name": "Ev. Kita Sophien", "phone-number": "+493024342439", "places": 84, "type": "Reguläre Einrichtung", "sponsor-id": "5425", "sponsor-name": "Ev. Kirchenkreisverband für Kindertageseinrichtungen Berlin Mitte-Nord", "street": "Große Hamburger Str. 28", "zip-code": 10115, "lat": 52.5251, "lon": 13.39912, "planning-area-id": 1100309}}, {"type": "Feature", "geometry": {"type": "Point", "coordinates": [13.38729, 52.51181]}, "properties": {"id": "1010590", "name": "Kindergarten Alegria Jardin infantil", "phone-number": "+493051055655", "places": 100, "type": "Reguläre Einrichtung", "sponsor-id": "1301", "sponsor-name": "Alegria Kiga gGmbH", "street": "Mohrenstr. 7", "zip-code": 10117, "lat": 52.51181, "lon": 13.38729, "planning-area-id": 1100207}}, {"type": "Feature", "geometry": {"type": "Point", "coordinates": [13.37422, 52.53145]}, "properties": {"id": "1010620", "name": "Kita Habersaathstraße", "phone-number": "+49302823535", "places": 90, "type": "Reguläre Einrichtung", "sponsor-id": "1312", "sponsor-name": "INA.KINDER.GARTEN gGmbH", "street": "Habersaathstr. 5", "zip-code": 10115, "lat": 52.53145, "lon": 13.37422, "planning-area-id": 1100308}}, {"type": "Feature", "geometry": {"type": "Point", "coordinates": [13.38732, 52.53013]}, "properties": {"id": "1010630", "name": "Kita Kinderinsel", "phone-number": "+493041716928", "places": 30, "type": "Reguläre Einrichtung", "sponsor-id": "1310", "sponsor-name": "Kinderinsel e. V. Inselnest", "street": "Eichendorffstr. 17", "zip-code": 10115, "lat": 52.53013, "lon": 13.38732, "planning-area-id": 1100415}}, {"type": "Feature", "geometry": {"type": "Point", "coordinates": [13.40349, 52.53693]}, "properties": {"id": "1010640", "name": "Kinderladen Rosenthaler Vorstadt", "phone-number": "+493054713948", "places": 19, "type": "Reguläre Einrichtung", "sponsor-id": "1152", "sponsor-name": "Kinderladen Rosenthaler Vorstadt e.V.", "street": "Wolliner Str. 60", "zip-code": 10435, "lat": 52.53693, "lon": 13.40349, "planning-area-id": 1100416}}, {"type": "Feature", "geometry": {"type": "Point", "coordinates": [13.40476, 52.53713]}, "properties": {"id": "1010720", "name": "Kita Fürstenberger Str. 4/5/Kigä City", "phone-number": "+49304620678", "places": 180, "type": "Reguläre Einrichtung", "sponsor-id": "120", "sponsor-name": "Kindergärten City", "street": "Fürstenberger Str. 4", "zip-code": 10435, "lat": 52.53713, "lon": 13.40476, "planning-area-id": 1100416}}, {"type": "Feature", "geometry": {"type": "Point", "coordinates": [13.39614, 52.534]}, "properties": {"id": "1010810", "name": "EKT - Rosinante", "phone-number": "+49301636939419", "places": 17, "type": "Reguläre Einrichtung", "sponsor-id": "1173", "sponsor-name": "Rosinante e.V.", "street": "Strelitzer Str. 71", "zip-code": 10115, "lat": 52.534, "lon": 13.39614, "planning-area-id": 1100415}}, {"type": "Feature", "geometry": {"type": "Point", "coordinates": [13.39639, 52.52493]}, "properties": {"id": "1010830", "name": "EKT - \"Pippi Langstrumpf\"", "phone-number": "+49302479252", "places": 21, "type": "Reguläre Einrichtung", "sponsor-id": "508", "sponsor-name": "Kinderladen Pippi Langstrumpf e.V.", "street": "Krausnickstr. 3A", "zip-code": 10115, "lat": 52.52493, "lon": 13.39639, "planning-area-id": 1100309}}, {"type": "Feature", "geometry": {"type": "Point", "coordinates": [13.39679, 52.53489]}, "properties": {"id": "1010850", "name": "Kita Cavalo-Marinho/Portubi e.V.", "phone-number": "+493048491840", "places": 30, "type": "Reguläre Einrichtung", "sponsor-id": "1332", "sponsor-name": "PORTUBI e. V.", "street": "Anklamer Str. 46", "zip-code": 10115, "lat": 52.53489, "lon": 13.39679, "planning-area-id": 1100415}}, {"type": "Feature", "geometry": {"type": "Point", "coordinates": [13.40043, 52.53626]}, "properties": {"id": "1010870", "name": "Kinderladen Oskar Kirschkern", "phone-number": "+493017643318775", "places": 35, "type": "Reguläre Einrichtung", "sponsor-id": "772", "sponsor-name": "Kirschkern e.V.", "street": "Anklamer Str. 29", "zip-code": 10115, "lat": 52.53626, "lon": 13.40043, "planning-area-id": 1100416}}, {"type": "Feature", "geometry": {"type": "Point", "coordinates": [13.38004, 52.51133]}, "properties": {"id": "1010890", "name": "Kindergarten Alegria", "phone-number": "+493051055655", "places": 45, "type": "Reguläre Einrichtung", "sponsor-id": "1301", "sponsor-name": "Alegria Kiga gGmbH", "street": "Voßstr. 12", "zip-code": 10117, "lat": 52.51133, "lon": 13.38004, "planning-area-id": 1100205}}, {"type": "Feature", "geometry": {"type": "Point", "coordinates": [13.39834, 52.52527]}, "properties": {"id": "1010940", "name": "EKT NaturKindergarten Berlin Mitte", "phone-number": "+493027596089", "places": 19, "type": "Reguläre Einrichtung", "sponsor-id": "1388", "sponsor-name": "Initiative zur Gründung eines Naturkindergartens in Berlin Mitte e.V.", "street": "Krausnickstr. 11", "zip-code": 10115, "lat": 52.52527, "lon": 13.39834, "planning-area-id": 1100309}}, {"type": "Feature", "geometry": {"type": "Point", "coordinates": [13.39426, 52.50998]}, "properties": {"id": "1010950", "name": "Musikkindergarten Berlin", "phone-number": "+493070084892", "places": 135, "type": "Reguläre Einrichtung", "sponsor-id": "1713", "sponsor-name": "MUSIKKINDERGARTEN BERLIN e.V. c/o Staatsoper im Schillertheater", "street": "Leipziger Str. 41", "zip-code": 10117, "lat": 52.50998, "lon": 13.39426, "planning-area-id": 1100207}}, {"type": "Feature", "geometry": {"type": "Point", "coordinates": [13.40043, 52.53626]}, "properties": {"id": "1010960", "name": "Kinderladen Paul Kirschkern", "phone-number": "+493017643320882", "places": 25, "type": "Reguläre Einrichtung", "sponsor-id": "772", "sponsor-name": "Kirschkern e.V.", "street": "Anklamer Str. 29", "zip-code": 10115, "lat": 52.53626, "lon": 13.40043, "planning-area-id": 1100416}}, {"type": "Feature", "geometry": {"type": "Point", "coordinates": [13.39048, 52.52691]}, "properties": {"id": "1010980", "name": "Berlin Metropolitan School", "phone-number": "+4930887273918", "places": 140, "type": "Reguläre Einrichtung", "sponsor-id": "7373", "sponsor-name": "Berlin Metropolitan School gGmbH", "street": "Linienstr. 122", "zip-code": 10115, "lat": 52.52691, "lon": 13.39048, "planning-area-id": 1100309}}, {"type": "Feature", "geometry": {"type": "Point", "coordinates": [13.39814, 52.53537]}, "properties": {"id": "1011000", "name": "Lauder Nitzan Kindergarten Yeshivat Beit Zion-Lauder Jüdisches Lehrhaus", "phone-number": "+4930405046925", "places": 70, "type": "Reguläre Einrichtung", "sponsor-id": "1391", "sponsor-name": "Lauder Yeshurun gGmbH", "street": "Brunnenstr. 33", "zip-code": 10115, "lat": 52.53537, "lon": 13.39814, "planning-area-id": 1100416}}, {"type": "Feature", "geometry": {"type": "Point", "coordinates": [13.38085, 52.52263]}, "properties": {"id": "1011020", "name": "Kita CASA AZUL - MAISON BLEUE", "phone-number": "+493024083164", "places": 45, "type": "Reguläre Einrichtung", "sponsor-id": "7393", "sponsor-name": "CASA AZUL - BLAUES HAUS e.V.", "street": "Reinhardtstr. 31", "zip-code": 10117, "lat": 52.52263, "lon": 13.38085, "planning-area-id": 1100308}}, {"type": "Feature", "geometry": {"type": "Point", "coordinates": [13.39987, 52.52931]}, "properties": {"id": "1011030", "name": "Kita Torstraße", "phone-number": "+493024628214", "places": 102, "type": "Reguläre Einrichtung", "sponsor-id": "7434", "sponsor-name": "Be Smart Academy \"Alte Seifenfabrik\" gGmbH", "street": "Torstr. 134", "zip-code": 10119, "lat": 52.52931, "lon": 13.39987, "planning-area-id": 1100309}}, {"type": "Feature", "geometry": {"type": "Point", "coordinates": [13.37824, 52.53563]}, "properties": {"id": "1011270", "name": "Kita jurella am Park", "phone-number": "+493052667912", "places": 54, "type": "Reguläre Einrichtung", "sponsor-id": "8250", "sponsor-name": "Jurella gGmbH", "street": "Chausseestr. 50B", "zip-code": 10115, "lat": 52.53563, "lon": 13.37824, "planning-area-id": 1100414}}, {"type": "Feature", "geometry": {"type": "Point", "coordinates": [13.42459, 52.51057]}, "properties": {"id": "1011290", "name": "Kinderladen IrgendWieAnders", "phone-number": "+493017624464410", "places": 25, "type": "Reguläre Einrichtung", "sponsor-id": "8120", "sponsor-name": "FürKinder e. V.", "street": "Wilhelmine-Gemberg-Weg 10", "zip-code": 10179, "lat": 52.51057, "lon": 13.42459, "planning-area-id": 1100313}}, {"type": "Feature", "geometry": {"type": "Point", "coordinates": [13.39791, 52.53006]}, "properties": {"id": "1011300", "name": "Kinderladen Emil Kirschkern", "phone-number": "+493017643327555", "places": 25, "type": "Reguläre Einrichtung", "sponsor-id": "772", "sponsor-name": "Kirschkern e.V.", "street": "Ackerstr. 3A", "zip-code": 10115, "lat": 52.53006, "lon": 13.39791, "planning-area-id": 1100415}}, {"type": "Feature", "geometry": {"type": "Point", "coordinates": [13.38976, 52.52336]}, "properties": {"id": "1011330", "name": "Kita an der Humboldt-Universität zu Berlin", "phone-number": "+4930939398620", "places": 88, "type": "Reguläre Einrichtung", "sponsor-id": "1256", "sponsor-name": "studierendenWERK BERLIN", "street": "Ziegelstr. 5", "zip-code": 10117, "lat": 52.52336, "lon": 13.38976, "planning-area-id": 1100309}}, {"type": "Feature", "geometry": {"type": "Point", "coordinates": [13.38083, 52.52979]}, "properties": {"id": "1011400", "name": "FRÖBEL - Kindergarten Charité Mitte", "phone-number": "+493028094011", "places": 70, "type": "Reguläre Einrichtung", "sponsor-id": "1227", "sponsor-name": "Fröbel Bildung und Erziehung gGmbH", "street": "Invalidenstr. 103A", "zip-code": 10115, "lat": 52.52979, "lon": 13.38083, "planning-area-id": 1100308}}, {"type": "Feature", "geometry": {"type": "Point", "coordinates": [13.41882, 52.5094]}, "properties": {"id": "1011470", "name": "Kita Schmidchen", "phone-number": "+493040362060", "places": 215, "type": "Reguläre Einrichtung", "sponsor-id": "1339", "sponsor-name": "Kinder- und Jugend der Volkssolidarität Berlin gGmbH", "street": "Schmidstr. 4", "zip-code": 10179, "lat": 52.5094, "lon": 13.41882, "planning-area-id": 1100313}}, {"type": "Feature", "geometry": {"type": "Point", "coordinates": [13.41825, 52.50888]}, "properties": {"id": "1011490", "name": "Deutsch-Italienische Kita/Kigä City", "phone-number": "+4930830290", "places": 55, "type": "Reguläre Einrichtung", "sponsor-id": "120", "sponsor-name": "Kindergärten City", "street": "Schmidstr. 2E", "zip-code": 10179, "lat": 52.50888, "lon": 13.41825, "planning-area-id": 1100313}}, {"type": "Feature", "geometry": {"type": "Point", "coordinates": [13.40644, 52.51421]}, "properties": {"id": "1011510", "name": "Inklusionskita Salamander Fischerinsel", "phone-number": "+493053843379", "places": 25, "type": "Reguläre Einrichtung", "sponsor-id": "9013", "sponsor-name": "Kita Salamander gGmbH", "street": "Mühlendamm 1", "zip-code": 10179, "lat": 52.51421, "lon": 13.40644, "planning-area-id": 1100312}}, {"type": "Feature", "geometry": {"type": "Point", "coordinates": [13.33982, 52.53192]}, "properties": {"id": "1020010", "name": "Kita Fantasia", "phone-number": "+49309895301", "places": 135, "type": "Reguläre Einrichtung", "sponsor-id": "107", "sponsor-name": "Orte für Kinder GmbH", "street": "Bredowstr. 27A", "zip-code": 10551, "lat": 52.53192, "lon": 13.33982, "planning-area-id": 1200520}}, {"type": "Feature", "geometry": {"type": "Point", "coordinates": [13.35095, 52.52091]}, "properties": {"id": "1020020", "name": "Kita Paradies für Kinder", "phone-number": "+49309480196", "places": 98, "type": "Reguläre Einrichtung", "sponsor-id": "1296", "sponsor-name": "Jugend- und Sozialwerk gGmbH", "street": "Calvinstr. 16", "zip-code": 10557, "lat": 52.52091, "lon": 13.35095, "planning-area-id": 1200626}}, {"type": "Feature", "geometry": {"type": "Point", "coordinates": [13.33405, 52.52928]}, "properties": {"id": "1020030", "name": "Kita Emdener Str. 11/Kigä City", "phone-number": "+49309408573", "places": 220, "type": "Reguläre Einrichtung", "sponsor-id": "120", "sponsor-name": "Kindergärten City", "street": "Emdener Str. 11", "zip-code": 10551, "lat": 52.52928, "lon": 13.33405, "planning-area-id": 1200519}}, {"type": "Feature", "geometry": {"type": "Point", "coordinates": [13.34673, 52.5328]}, "properties": {"id": "1020040", "name": "Kita Havelberger Str. 21/Kigä City", "phone-number": "+49309494392", "places": 158, "type": "Reguläre Einrichtung", "sponsor-id": "120", "sponsor-name": "Kindergärten City", "street": "Havelberger Str. 21", "zip-code": 10559, "lat": 52.5328, "lon": 13.34673, "planning-area-id": 1200623}}, {"type": "Feature", "geometry": {"type": "Point", "coordinates": [13.34028, 52.51741]}, "properties": {"id": "1020050", "name": "Kita/Kinder in Bewegung (KiB)", "phone-number": "+49306409507", "places": 93, "type": "Reguläre Einrichtung", "sponsor-id": "1329", "sponsor-name": "Kinder in Bewegung gGmbH Gemeinnützige Kindergarten-Trägergesellschaft des Berliner Sports", "street": "Klopstockstr. 29", "zip-code": 10557, "lat": 52.51741, "lon": 13.34028, "planning-area-id": 1200629}}, {"type": "Feature", "geometry": {"type": "Point", "coordinates": [13.34926, 52.52482]}, "properties": {"id": "1020060", "name": "Evangelische Kindertagesstätte St. Johannis der Gemeinde Tiergarten", "phone-number": "+49309889094", "places": 75, "type": "Reguläre Einrichtung", "sponsor-id": "450", "sponsor-name": "Ev. Kirchengemeinde Tiergarten", "street": "Alt-Moabit 25", "zip-code": 10559, "lat": 52.52482, "lon": 13.34926, "planning-area-id": 1200626}}, {"type": "Feature", "geometry": {"type": "Point", "coordinates": [13.34607, 52.53074]}, "properties": {"id": "1020080", "name": "Kita Birkelinchen/Ev. Kirchengem. Heilige-Geist", "phone-number": "+493044724023", "places": 30, "type": "Reguläre Einrichtung", "sponsor-id": "451", "sponsor-name": "Ev. Kirchengemeinde Heilige-Geist", "street": "Birkenstr. 60", "zip-code": 10559, "lat": 52.53074, "lon": 13.34607, "planning-area-id": 1200625}}, {"type": "Feature", "geometry": {"type": "Point", "coordinates": [13.36109, 52.50137]}, "properties": {"id": "1020090", "name": "KITA Sonnenschein", "phone-number": "+493023005178", "places": 135, "type": "Reguläre Einrichtung", "sponsor-id": "1355", "sponsor-name": "Käpt'n Browser gemeinnützige Gesellschaft mit beschränkter Haftung", "street": "Pohlstr. 87", "zip-code": 10785, "lat": 52.50137, "lon": 13.36109, "planning-area-id": 1100103}}, {"type": "Feature", "geometry": {"type": "Point", "coordinates": [13.35426, 52.52864]}, "properties": {"id": "1020100", "name": "Kita Rathenower Str. 15/Kigä City", "phone-number": "+493074780168", "places": 200, "type": "Reguläre Einrichtung", "sponsor-id": "120", "sponsor-name": "Kindergärten City", "street": "Rathenower Str. 15", "zip-code": 10559, "lat": 52.52864, "lon": 13.35426, "planning-area-id": 1200623}}, {"type": "Feature", "geometry": {"type": "Point", "coordinates": [13.33554, 52.52598]}, "properties": {"id": "1020110", "name": "Kita Otto", "phone-number": "+4930927979", "places": 45, "type": "Reguläre Einrichtung", "sponsor-id": "5425", "sponsor-name": "Ev. Kirchenkreisverband für Kindertageseinrichtungen Berlin Mitte-Nord", "street": "Ottostr. 16", "zip-code": 10555, "lat": 52.52598, "lon": 13.33554, "planning-area-id": 1200521}}, {"type": "Feature", "geometry": {"type": "Point", "coordinates": [13.32585, 52.53186]}, "properties": {"id": "1020120", "name": "Kita Sprachwelt", "phone-number": "+49309480513", "places": 110, "type": "Reguläre Einrichtung", "sponsor-id": "1296", "sponsor-name": "Jugend- und Sozialwerk gGmbH", "street": "Rostocker Str. 32A", "zip-code": 10553, "lat": 52.53186, "lon": 13.32585, "planning-area-id": 1200518}}, {"type": "Feature", "geometry": {"type": "Point", "coordinates": [13.33034, 52.522]}, "properties": {"id": "1020160", "name": "Ev. Kita Erlöser", "phone-number": "+4930912489", "places": 60, "type": "Reguläre Einrichtung", "sponsor-id": "5425", "sponsor-name": "Ev. Kirchenkreisverband für Kindertageseinrichtungen Berlin Mitte-Nord", "street": "Wikingerufer 9", "zip-code": 10555, "lat": 52.522, "lon": 13.33034, "planning-area-id": 1200522}}, {"type": "Feature", "geometry": {"type": "Point", "coordinates": [13.34335, 52.522]}, "properties": {"id": "1020180", "name": "Kita Holsteiner Ufer 12/Kigä City", "phone-number": "+49306409506", "places": 115, "type": "Reguläre Einrichtung", "sponsor-id": "120", "sponsor-name": "Kindergärten City", "street": "Holsteiner Ufer 12", "zip-code": 10557, "lat": 52.522, "lon": 13.34335, "planning-area-id": 1200629}}, {"type": "Feature", "geometry": {"type": "Point", "coordinates": [13.35591, 52.51895]}, "properties": {"id": "1020200", "name": "Spreekita", "phone-number": "+493022635770", "places": 110, "type": "Reguläre Einrichtung", "sponsor-id": "5425", "sponsor-name": "Ev. Kirchenkreisverband für Kindertageseinrichtungen Berlin Mitte-Nord", "street": "Paulstr. 20D", "zip-code": 10557, "lat": 52.51895, "lon": 13.35591, "planning-area-id": 1200628}}, {"type": "Feature", "geometry": {"type": "Point", "coordinates": [13.34972, 52.52714]}, "properties": {"id": "1020210", "name": "Kath. Kita St. Laurentius", "phone-number": "+4930259365125", "places": 65, "type": "Reguläre Einrichtung", "sponsor-id": "9193", "sponsor-name": "Kitas im Erzbistum Berlin-Zweckverband der katholischen Kirchengemeinden", "street": "Bandelstr. 41", "zip-code": 10559, "lat": 52.52714, "lon": 13.34972, "planning-area-id": 1200625}}, {"type": "Feature", "geometry": {"type": "Point", "coordinates": [13.36146, 52.50274]}, "properties": {"id": "1020230", "name": "EKT - Cocorico et Co", "phone-number": "+493025799626", "places": 19, "type": "Reguläre Einrichtung", "sponsor-id": "562", "sponsor-name": "COCORICO et Co. e. V.", "street": "Kluckstr. 29", "zip-code": 10785, "lat": 52.50274, "lon": 13.36146, "planning-area-id": 1100103}}, {"type": "Feature", "geometry": {"type": "Point", "coordinates": [13.35433, 52.52367]}, "properties": {"id": "1020240", "name": "Kita Alt-Moabit 117/Kigä City", "phone-number": "+49309805060", "places": 105, "type": "Reguläre Einrichtung", "sponsor-id": "120", "sponsor-name": "Kindergärten City", "street": "Alt-Moabit 117", "zip-code": 10559, "lat": 52.52367, "lon": 13.35433, "planning-area-id": 1200626}}, {"type": "Feature", "geometry": {"type": "Point", "coordinates": [13.36296, 52.50315]}, "properties": {"id": "1020270", "name": "AWO Kita Maulwurf", "phone-number": "+49302618950", "places": 100, "type": "Reguläre Einrichtung", "sponsor-id": "150", "sponsor-name": "Arbeiterwohlfahrt Kreisverband Berlin-Mitte e.V.", "street": "Lützowstr. 83", "zip-code": 10785, "lat": 52.50315, "lon": 13.36296, "planning-area-id": 1100103}}, {"type": "Feature", "geometry": {"type": "Point", "coordinates": [13.33229, 52.52684]}, "properties": {"id": "1020280", "name": "AWO Kita Schmetterling", "phone-number": "+49309741995", "places": 65, "type": "Reguläre Einrichtung", "sponsor-id": "150", "sponsor-name": "Arbeiterwohlfahrt Kreisverband Berlin-Mitte e.V.", "street": "Turmstr. 71", "zip-code": 10551, "lat": 52.52684, "lon": 13.33229, "planning-area-id": 1200521}}, {"type": "Feature", "geometry": {"type": "Point", "coordinates": [13.3357, 52.52167]}, "properties": {"id": "1020310", "name": "EKT - Frecher Spatz", "phone-number": "+4930914540", "places": 20, "type": "Reguläre Einrichtung", "sponsor-id": "636", "sponsor-name": "Frecher Spatz e.V.", "street": "Elberfelder Str. 18", "zip-code": 10555, "lat": 52.52167, "lon": 13.3357, "planning-area-id": 1200522}}, {"type": "Feature", "geometry": {"type": "Point", "coordinates": [13.35163, 52.53515]}, "properties": {"id": "1020440", "name": "Kinderladen Stoppelhopser", "phone-number": "+4930957578", "places": 25, "type": "Reguläre Einrichtung", "sponsor-id": "1006", "sponsor-name": "Stoppelhopser e.V.", "street": "Quitzowstr. 136", "zip-code": 10559, "lat": 52.53515, "lon": 13.35163, "planning-area-id": 1200623}}, {"type": "Feature", "geometry": {"type": "Point", "coordinates": [13.35866, 52.53494]}, "properties": {"id": "1020480", "name": "Kita Lehrter Straße 40", "phone-number": "+49309703022", "places": 74, "type": "Reguläre Einrichtung", "sponsor-id": "120", "sponsor-name": "Kindergärten City", "street": "Lehrter Str. 40", "zip-code": 10557, "lat": 52.53494, "lon": 13.35866, "planning-area-id": 1200624}}, {"type": "Feature", "geometry": {"type": "Point", "coordinates": [13.34964, 52.53428]}, "properties": {"id": "1020490", "name": "EKT - Maluch", "phone-number": "+4930967815", "places": 30, "type": "Reguläre Einrichtung", "sponsor-id": "1038", "sponsor-name": "Verein zur Förderung und Integration polnischer Kinder in der Berliner Gesellschaft e.V.", "street": "Stephanstr. 17", "zip-code": 10559, "lat": 52.53428, "lon": 13.34964, "planning-area-id": 1200623}}, {"type": "Feature", "geometry": {"type": "Point", "coordinates": [13.3517, 52.52768]}, "properties": {"id": "1020500", "name": "EKT - Perle", "phone-number": "+4930945859", "places": 20, "type": "Reguläre Einrichtung", "sponsor-id": "897", "sponsor-name": "Perle e.V.", "street": "Wilsnacker Str. 14", "zip-code": 10559, "lat": 52.52768, "lon": 13.3517, "planning-area-id": 1200625}}, {"type": "Feature", "geometry": {"type": "Point", "coordinates": [13.32677, 52.53196]}, "properties": {"id": "1020510", "name": "Kita Safina", "phone-number": "+49309480386", "places": 20, "type": "Reguläre Einrichtung", "sponsor-id": "8428", "sponsor-name": "HadeWe-Integra gemeinnützige GmbH", "street": "Rostocker Str. 26", "zip-code": 10553, "lat": 52.53196, "lon": 13.32677, "planning-area-id": 1200518}}, {"type": "Feature", "geometry": {"type": "Point", "coordinates": [13.33817, 52.52184]}, "properties": {"id": "1020520", "name": "EKT Flocke", "phone-number": "+4930922126", "places": 25, "type": "Reguläre Einrichtung", "sponsor-id": "626", "sponsor-name": "Elterninitiativ-Kindertagesstätten (EKT) Verein Flocke e.V.", "street": "Bochumer Str. 11", "zip-code": 10555, "lat": 52.52184, "lon": 13.33817, "planning-area-id": 1200522}}, {"type": "Feature", "geometry": {"type": "Point", "coordinates": [13.34299, 52.52752]}, "properties": {"id": "1020550", "name": "EKT - Drunter und Drüber", "phone-number": "+4930951860", "places": 23, "type": "Reguläre Einrichtung", "sponsor-id": "602", "sponsor-name": "EKT Drunter und Drüber Stromstraße 58 e.V.", "street": "Stromstr. 58", "zip-code": 10551, "lat": 52.52752, "lon": 13.34299, "planning-area-id": 1200520}}, {"type": "Feature", "geometry": {"type": "Point", "coordinates": [13.35686, 52.52074]}, "properties": {"id": "1020580", "name": "EKT Schneckenhaus", "phone-number": "+4930921261", "places": 18, "type": "Reguläre Einrichtung", "sponsor-id": "636", "sponsor-name": "Frecher Spatz e.V.", "street": "Flemingstr. 11", "zip-code": 10557, "lat": 52.52074, "lon": 13.35686, "planning-area-id": 1200628}}, {"type": "Feature", "geometry": {"type": "Point", "coordinates": [13.33154, 52.52994]}, "properties": {"id": "1020620", "name": "EKT - ALIBABA", "phone-number": "+4930962664", "places": 15, "type": "Reguläre Einrichtung", "sponsor-id": "521", "sponsor-name": "Ali Baba e.V.", "street": "Waldstr. 15", "zip-code": 10551, "lat": 52.52994, "lon": 13.33154, "planning-area-id": 1200519}}, {"type": "Feature", "geometry": {"type": "Point", "coordinates": [13.35129, 52.5218]}, "properties": {"id": "1020630", "name": "EKT Regenbogen", "phone-number": "+4930935555", "places": 18, "type": "Reguläre Einrichtung", "sponsor-id": "921", "sponsor-name": "Eltern-Initiativ-Kindertagesstätte Regenbogen e.V.", "street": "Calvinstr. 13", "zip-code": 10557, "lat": 52.5218, "lon": 13.35129, "planning-area-id": 1200626}}, {"type": "Feature", "geometry": {"type": "Point", "coordinates": [13.35134, 52.52732]}, "properties": {"id": "1020640", "name": "EKT - Kinderladen Badehaus", "phone-number": "+4930946069", "places": 26, "type": "Reguläre Einrichtung", "sponsor-id": "744", "sponsor-name": "Kinderladen Badehaus e.V.", "street": "Wilsnacker Str. 62", "zip-code": 10559, "lat": 52.52732, "lon": 13.35134, "planning-area-id": 1200625}}, {"type": "Feature", "geometry": {"type": "Point", "coordinates": [13.34556, 52.52854]}, "properties": {"id": "1020670", "name": "EKT - Panther, Tiger und Co.", "phone-number": "+49301775069879", "places": 25, "type": "Reguläre Einrichtung", "sponsor-id": "1054", "sponsor-name": "VSU-Verein für Sozial- und Umweltpolitik Berlin e.V.", "street": "Lübecker Str. 13", "zip-code": 10559, "lat": 52.52854, "lon": 13.34556, "planning-area-id": 1200625}}, {"type": "Feature", "geometry": {"type": "Point", "coordinates": [13.34868, 52.53482]}, "properties": {"id": "1020680", "name": "EKT - Sagaland", "phone-number": "+4930953052", "places": 18, "type": "Reguläre Einrichtung", "sponsor-id": "942", "sponsor-name": "Sagaland e.V.", "street": "Quitzowstr. 125", "zip-code": 10559, "lat": 52.53482, "lon": 13.34868, "planning-area-id": 1200623}}, {"type": "Feature", "geometry": {"type": "Point", "coordinates": [13.33478, 52.53229]}, "properties": {"id": "1020700", "name": "Kita Emdener Str.", "phone-number": "+4930951367", "places": 50, "type": "Reguläre Einrichtung", "sponsor-id": "8662", "sponsor-name": "Forum Soziale Dienste Kita I GmbH", "street": "Emdener Str. 28", "zip-code": 10551, "lat": 52.53229, "lon": 13.33478, "planning-area-id": 1200519}}, {"type": "Feature", "geometry": {"type": "Point", "coordinates": [13.31885, 52.52908]}, "properties": {"id": "1020730", "name": "Kita Huttenstr. 22A/Kigä City", "phone-number": "+4930443521", "places": 85, "type": "Reguläre Einrichtung", "sponsor-id": "120", "sponsor-name": "Kindergärten City", "street": "Huttenstr. 22A", "zip-code": 10553, "lat": 52.52908, "lon": 13.31885, "planning-area-id": 1200517}}, {"type": "Feature", "geometry": {"type": "Point", "coordinates": [13.35521, 52.50487]}, "properties": {"id": "1020740", "name": "Kita Lützowstraße", "phone-number": "+493023005177", "places": 115, "type": "Reguläre Einrichtung", "sponsor-id": "1312", "sponsor-name": "INA.KINDER.GARTEN gGmbH", "street": "Lützowstr. 61", "zip-code": 10785, "lat": 52.50487, "lon": 13.35521, "planning-area-id": 1100103}}, {"type": "Feature", "geometry": {"type": "Point", "coordinates": [13.35743, 52.52024]}, "properties": {"id": "1020750", "name": "Kita Lüneburger Straße", "phone-number": "+49309480391", "places": 95, "type": "Reguläre Einrichtung", "sponsor-id": "1312", "sponsor-name": "INA.KINDER.GARTEN gGmbH", "street": "Lüneburger Str. 14", "zip-code": 10557, "lat": 52.52024, "lon": 13.35743, "planning-area-id": 1200628}}, {"type": "Feature", "geometry": {"type": "Point", "coordinates": [13.31549, 52.52951]}, "properties": {"id": "1020760", "name": "EKT - Arche Moabit", "phone-number": "+4930495838", "places": 32, "type": "Reguläre Einrichtung", "sponsor-id": "533", "sponsor-name": "Arche Moabit e.V.", "street": "Huttenstr. 31", "zip-code": 10553, "lat": 52.52951, "lon": 13.31549, "planning-area-id": 1200517}}, {"type": "Feature", "geometry": {"type": "Point", "coordinates": [13.34473, 52.53017]}, "properties": {"id": "1020770", "name": "Kita Kleiner Frosch", "phone-number": "+4930965210", "places": 40, "type": "Reguläre Einrichtung", "sponsor-id": "8729", "sponsor-name": "TEVBB Soziale Dienste GmbH", "street": "Lübecker Str. 32", "zip-code": 10559, "lat": 52.53017, "lon": 13.34473, "planning-area-id": 1200625}}, {"type": "Feature", "geometry": {"type": "Point", "coordinates": [13.34437, 52.50787]}, "properties": {"id": "1020780", "name": "Kenntnisreich Kindertagesstätte Am Zoo", "phone-number": "+493026931422", "places": 39, "type": "Reguläre Einrichtung", "sponsor-id": "8259", "sponsor-name": "Kenntnisreich Kindertagesstätten gGmbH", "street": "Katharina-Heinroth-Ufer 1", "zip-code": 10787, "lat": 52.50787, "lon": 13.34437, "planning-area-id": 1100101}}, {"type": "Feature", "geometry": {"type": "Point", "coordinates": [13.37034, 52.50308]}, "properties": {"id": "1020790", "name": "KiBiLuga", "phone-number": "+49302641248", "places": 130, "type": "Reguläre Einrichtung", "sponsor-id": "107", "sponsor-name": "Orte für Kinder GmbH", "street": "Bissingzeile 15", "zip-code": 10785, "lat": 52.50308, "lon": 13.37034, "planning-area-id": 1100104}}, {"type": "Feature", "geometry": {"type": "Point", "coordinates": [13.33371, 52.52982]}, "properties": {"id": "1020820", "name": "Kita Pädagogisches Arbeitskollektiv", "phone-number": "+4930962071", "places": 35, "type": "Reguläre Einrichtung", "sponsor-id": "1253", "sponsor-name": "Pädagogisches Arbeitskollektiv e.V.", "street": "Emdener Str. 47", "zip-code": 10551, "lat": 52.52982, "lon": 13.33371, "planning-area-id": 1200519}}, {"type": "Feature", "geometry": {"type": "Point", "coordinates": [13.36066, 52.52242]}, "properties": {"id": "1020830", "name": "Kita Verein für praktische Pädagogik", "phone-number": "+4930924465", "places": 45, "type": "Reguläre Einrichtung", "sponsor-id": "1263", "sponsor-name": "Verein für praktische Pädagogik Moabit e.V.", "street": "Alt-Moabit 133B", "zip-code": 10557, "lat": 52.52242, "lon": 13.36066, "planning-area-id": 1200628}}, {"type": "Feature", "geometry": {"type": "Point", "coordinates": [13.33108, 52.53055]}, "properties": {"id": "1020840", "name": "Kinder- und Schülerladen Olle Burg", "phone-number": "+4930955572", "places": 30, "type": "Reguläre Einrichtung", "sponsor-id": "5309", "sponsor-name": "Fokus plus gGmbH", "street": "Waldstr. 42", "zip-code": 10551, "lat": 52.53055, "lon": 13.33108, "planning-area-id": 1200519}}, {"type": "Feature", "geometry": {"type": "Point", "coordinates": [13.34093, 52.5326]}, "properties": {"id": "1020850", "name": "EKT - Der Kick - Initiative im Kiez", "phone-number": "+4930954982", "places": 16, "type": "Reguläre Einrichtung", "sponsor-id": "5309", "sponsor-name": "Fokus plus gGmbH", "street": "Birkenstr. 33", "zip-code": 10551, "lat": 52.5326, "lon": 13.34093, "planning-area-id": 1200520}}, {"type": "Feature", "geometry": {"type": "Point", "coordinates": [13.33764, 52.52461]}, "properties": {"id": "1020860", "name": "Kinderladen Rosa Kirchkern", "phone-number": "+493017643316670", "places": 28, "type": "Reguläre Einrichtung", "sponsor-id": "772", "sponsor-name": "Kirschkern e.V.", "street": "Bochumer Str. 2", "zip-code": 10555, "lat": 52.52461, "lon": 13.33764, "planning-area-id": 1200522}}, {"type": "Feature", "geometry": {"type": "Point", "coordinates": [13.3366, 52.5191]}, "properties": {"id": "1020870", "name": "Kita Hansa-Ufer 3a Kigä City", "phone-number": "+49304620664", "places": 100, "type": "Reguläre Einrichtung", "sponsor-id": "120", "sponsor-name": "Kindergärten City", "street": "Hansa-Ufer 3A", "zip-code": 10555, "lat": 52.5191, "lon": 13.3366, "planning-area-id": 1200522}}, {"type": "Feature", "geometry": {"type": "Point", "coordinates": [13.35392, 52.50507]}, "properties": {"id": "1020890", "name": "Kita am Lützowplatz 1", "phone-number": "+493075940911", "places": 30, "type": "Reguläre Einrichtung", "sponsor-id": "8259", "sponsor-name": "Kenntnisreich Kindertagesstätten gGmbH", "street": "Lützowplatz 1", "zip-code": 10785, "lat": 52.50507, "lon": 13.35392, "planning-area-id": 1100103}}, {"type": "Feature", "geometry": {"type": "Point", "coordinates": [13.33234, 52.53263]}, "properties": {"id": "1020900", "name": "Kita Swimmy", "phone-number": "+49309880470", "places": 25, "type": "Reguläre Einrichtung", "sponsor-id": "7859", "sponsor-name": "MiniKitas First gGmbH", "street": "Siemensstr. 10", "zip-code": 10551, "lat": 52.53263, "lon": 13.33234, "planning-area-id": 1200519}}, {"type": "Feature", "geometry": {"type": "Point", "coordinates": [13.33194, 52.53156]}, "properties": {"id": "1020950", "name": "Kita SOS-Kinderdorf", "phone-number": "+493099341", "places": 126, "type": "Reguläre Einrichtung", "sponsor-id": "1347", "sponsor-name": "SOS-Kinderdorf e.V.", "street": "Waldstr. 23", "zip-code": 10551, "lat": 52.53156, "lon": 13.33194, "planning-area-id": 1200519}}, {"type": "Feature", "geometry": {"type": "Point", "coordinates": [13.33558, 52.51557]}, "properties": {"id": "1020960", "name": "Kita an der UdK", "phone-number": "+4930939398480", "places": 70, "type": "Reguläre Einrichtung", "sponsor-id": "1256", "sponsor-name": "studierendenWERK BERLIN", "street": "Siegmunds Hof 17", "zip-code": 10555, "lat": 52.51557, "lon": 13.33558, "planning-area-id": 1200629}}, {"type": "Feature", "geometry": {"type": "Point", "coordinates": [13.36868, 52.50124]}, "properties": {"id": "1021000", "name": "FRÖBEL Kindergarten Stepping Stones", "phone-number": "+493046997770", "places": 170, "type": "Reguläre Einrichtung", "sponsor-id": "1227", "sponsor-name": "Fröbel Bildung und Erziehung gGmbH", "street": "Lützowstr. 106", "zip-code": 10785, "lat": 52.50124, "lon": 13.36868, "planning-area-id": 1100104}}, {"type": "Feature", "geometry": {"type": "Point", "coordinates": [13.34973, 52.53134]}, "properties": {"id": "1021010", "name": "Kita Cheburashka-Tiergarten", "phone-number": "+49309886617", "places": 26, "type": "Reguläre Einrichtung", "sponsor-id": "7388", "sponsor-name": "Cheburashka gGmbH", "street": "Wilsnacker Str. 40", "zip-code": 10559, "lat": 52.53134, "lon": 13.34973, "planning-area-id": 1200623}}, {"type": "Feature", "geometry": {"type": "Point", "coordinates": [13.33568, 52.5215]}, "properties": {"id": "1021060", "name": "EKT biberbau", "phone-number": "+493052102116", "places": 20, "type": "Reguläre Einrichtung", "sponsor-id": "636", "sponsor-name": "Frecher Spatz e.V.", "street": "Elberfelder Str. 19", "zip-code": 10555, "lat": 52.5215, "lon": 13.33568, "planning-area-id": 1200522}}, {"type": "Feature", "geometry": {"type": "Point", "coordinates": [13.3338, 52.52347]}, "properties": {"id": "1021090", "name": "Kinderladen Katz & Kedi", "phone-number": "+4930916129", "places": 24, "type": "Reguläre Einrichtung", "sponsor-id": "636", "sponsor-name": "Frecher Spatz e.V.", "street": "Jagowstr. 28", "zip-code": 10555, "lat": 52.52347, "lon": 13.3338, "planning-area-id": 1200522}}, {"type": "Feature", "geometry": {"type": "Point", "coordinates": [13.32646, 52.5303]}, "properties": {"id": "1021100", "name": "Die Bärenbande", "phone-number": "+493098435840", "places": 23, "type": "Reguläre Einrichtung", "sponsor-id": "7754", "sponsor-name": "BEB Bildungseinrichtung für Erziehung und Bildung e.V.", "street": "Rostocker Str. 37", "zip-code": 10553, "lat": 52.5303, "lon": 13.32646, "planning-area-id": 1200518}}, {"type": "Feature", "geometry": {"type": "Point", "coordinates": [13.3346, 52.5248]}, "properties": {"id": "1021140", "name": "Kita Arlecchino", "phone-number": "+4930983955", "places": 21, "type": "Reguläre Einrichtung", "sponsor-id": "7989", "sponsor-name": "Arlecchino gUG (haftungsbeschränkt)", "street": "Alt-Moabit 35", "zip-code": 10555, "lat": 52.5248, "lon": 13.3346, "planning-area-id": 1200521}}, {"type": "Feature", "geometry": {"type": "Point", "coordinates": [13.34787, 52.53093]}, "properties": {"id": "1021160", "name": "Kita Spielraum Perlentaucher", "phone-number": "+49309881662", "places": 50, "type": "Reguläre Einrichtung", "sponsor-id": "9198", "sponsor-name": "SpielRaum Kindertagesstätten Berlin gGmbH", "street": "Perleberger Str. 47", "zip-code": 10559, "lat": 52.53093, "lon": 13.34787, "planning-area-id": 1200623}}, {"type": "Feature", "geometry": {"type": "Point", "coordinates": [13.35415, 52.52324]}, "properties": {"id": "1021170", "name": "Kindergarten Schatztruhe", "phone-number": "+493063966448", "places": 45, "type": "Reguläre Einrichtung", "sponsor-id": "8140", "sponsor-name": "MI-SA-DI gUG (haftungsbeschränkt) gemeinnützige Unternehmergesellschaft für Migration, Soziale Arbeit und Dialog", "street": "Spenerstr. 37", "zip-code": 10557, "lat": 52.52324, "lon": 13.35415, "planning-area-id": 1200626}}, {"type": "Feature", "geometry": {"type": "Point", "coordinates": [13.31902, 52.52861]}, "properties": {"id": "1021180", "name": "Kita Elfenbein", "phone-number": "+49304507967", "places": 35, "type": "Reguläre Einrichtung", "sponsor-id": "8150", "sponsor-name": "GFBE gGmbH- Gesellschaft für Bildung und Erziehung", "street": "Huttenstr. 21", "zip-code": 10553, "lat": 52.52861, "lon": 13.31902, "planning-area-id": 1200517}}, {"type": "Feature", "geometry": {"type": "Point", "coordinates": [13.34645, 52.52477]}, "properties": {"id": "1021190", "name": "AWO Kita am Spreebogen", "phone-number": "+493044724001", "places": 40, "type": "Reguläre Einrichtung", "sponsor-id": "150", "sponsor-name": "Arbeiterwohlfahrt Kreisverband Berlin-Mitte e.V.", "street": "Alt-Moabit 98", "zip-code": 10559, "lat": 52.52477, "lon": 13.34645, "planning-area-id": 1200626}}, {"type": "Feature", "geometry": {"type": "Point", "coordinates": [13.33384, 52.52466]}, "properties": {"id": "1021200", "name": "Kita Brighella", "phone-number": "+49309839557", "places": 15, "type": "Reguläre Einrichtung", "sponsor-id": "7989", "sponsor-name": "Arlecchino gUG (haftungsbeschränkt)", "street": "Alt-Moabit 37", "zip-code": 10555, "lat": 52.52466, "lon": 13.33384, "planning-area-id": 1200521}}, {"type": "Feature", "geometry": {"type": "Point", "coordinates": [13.33112, 52.53069]}, "properties": {"id": "1021210", "name": "Kita Olle Burg", "phone-number": "+493020679347", "places": 12, "type": "Reguläre Einrichtung", "sponsor-id": "5309", "sponsor-name": "Fokus plus gGmbH", "street": "Waldstr. 41", "zip-code": 10551, "lat": 52.53069, "lon": 13.33112, "planning-area-id": 1200519}}, {"type": "Feature", "geometry": {"type": "Point", "coordinates": [13.33413, 52.5219]}, "properties": {"id": "1021220", "name": "KiLa Jagowspatzen", "phone-number": "+49302304860", "places": 60, "type": "Reguläre Einrichtung", "sponsor-id": "636", "sponsor-name": "Frecher Spatz e.V.", "street": "Jagowstr. 10", "zip-code": 10555, "lat": 52.5219, "lon": 13.33413, "planning-area-id": 1200522}}, {"type": "Feature", "geometry": {"type": "Point", "coordinates": [13.34142, 52.52539]}, "properties": {"id": "1021230", "name": "Kita am Essener Park", "phone-number": "+49309840277", "places": 50, "type": "Reguläre Einrichtung", "sponsor-id": "9200", "sponsor-name": "GemBeki Gemeinsinn-für Berliner Kinder gGmbH", "street": "Alt-Moabit 86", "zip-code": 10555, "lat": 52.52539, "lon": 13.34142, "planning-area-id": 1200522}}, {"type": "Feature", "geometry": {"type": "Point", "coordinates": [13.31975, 52.52563]}, "properties": {"id": "1021240", "name": "Kita Engelsnest", "phone-number": "+493049085470", "places": 25, "type": "Reguläre Einrichtung", "sponsor-id": "8360", "sponsor-name": "Liberi Bildung gemeinnützige GmbH", "street": "Kaiserin-Augusta-Allee 101", "zip-code": 10553, "lat": 52.52563, "lon": 13.31975, "planning-area-id": 1200517}}, {"type": "Feature", "geometry": {"type": "Point", "coordinates": [13.3362, 52.52236]}, "properties": {"id": "1021250", "name": "Kita Apfelkern", "phone-number": "+493049089209", "places": 25, "type": "Reguläre Einrichtung", "sponsor-id": "8372", "sponsor-name": "MetropolitanKids UG (haftungsbeschränkt)", "street": "Elberfelder Str. 28", "zip-code": 10555, "lat": 52.52236, "lon": 13.3362, "planning-area-id": 1200522}}, {"type": "Feature", "geometry": {"type": "Point", "coordinates": [13.32664, 52.52678]}, "properties": {"id": "1021260", "name": "Kita Safina", "phone-number": "+493094513770", "places": 20, "type": "Reguläre Einrichtung", "sponsor-id": "8428", "sponsor-name": "HadeWe-Integra gemeinnützige GmbH", "street": "Erasmusstr. 7A", "zip-code": 10553, "lat": 52.52678, "lon": 13.32664, "planning-area-id": 1200518}}, {"type": "Feature", "geometry": {"type": "Point", "coordinates": [13.34734, 52.53343]}, "properties": {"id": "1021270", "name": "Kita Spielraum Havelsegler", "phone-number": "+49309405500", "places": 25, "type": "Reguläre Einrichtung", "sponsor-id": "8130", "sponsor-name": "GenerationenRaum gemeinnützige Gesellschaft zur Förderung generationsübergreifender Interaktion mbH", "street": "Havelberger Str. 12", "zip-code": 10559, "lat": 52.53343, "lon": 13.34734, "planning-area-id": 1200623}}, {"type": "Feature", "geometry": {"type": "Point", "coordinates": [13.3568, 52.50457]}, "properties": {"id": "1021300", "name": "Kita Bahnhof", "phone-number": "+49305050922", "places": 25, "type": "Reguläre Einrichtung", "sponsor-id": "8645", "sponsor-name": "Vielfalt auf Augenhöhe gGmbH", "street": "Lützowstr. 68", "zip-code": 10785, "lat": 52.50457, "lon": 13.3568, "planning-area-id": 1100103}}, {"type": "Feature", "geometry": {"type": "Point", "coordinates": [13.33426, 52.52324]}, "properties": {"id": "1021310", "name": "Kita Kolibri", "phone-number": "+4930505696850", "places": 15, "type": "Reguläre Einrichtung", "sponsor-id": "5309", "sponsor-name": "Fokus plus gGmbH", "street": "Jagowstr. 18", "zip-code": 10555, "lat": 52.52324, "lon": 13.33426, "planning-area-id": 1200522}}, {"type": "Feature", "geometry": {"type": "Point", "coordinates": [13.34915, 52.53392]}, "properties": {"id": "1021320", "name": "SpielRaum Stephanshafen", "phone-number": "+493026598704", "places": 20, "type": "Reguläre Einrichtung", "sponsor-id": "8130", "sponsor-name": "GenerationenRaum gemeinnützige Gesellschaft zur Förderung generationsübergreifender Interaktion mbH", "street": "Stephanstr. 53", "zip-code": 10559, "lat": 52.53392, "lon": 13.34915, "planning-area-id": 1200623}}, {"type": "Feature", "geometry": {"type": "Point", "coordinates": [13.35549, 52.52032]}, "properties": {"id": "1021330", "name": "Kita Bellevue", "phone-number": "+493040748134", "places": 25, "type": "Reguläre Einrichtung", "sponsor-id": "8675", "sponsor-name": "fidea Bildung gGmbH", "street": "Paulstr. 18", "zip-code": 10557, "lat": 52.52032, "lon": 13.35549, "planning-area-id": 1200626}}, {"type": "Feature", "geometry": {"type": "Point", "coordinates": [13.32676, 52.53224]}, "properties": {"id": "1021340", "name": "Kita Elfenblume", "phone-number": "+493099993235", "places": 25, "type": "Reguläre Einrichtung", "sponsor-id": "8589", "sponsor-name": "Forum für Bildung und Erziehung (FBE) gGmbH", "street": "Rostocker Str. 28", "zip-code": 10553, "lat": 52.53224, "lon": 13.32676, "planning-area-id": 1200518}}, {"type": "Feature", "geometry": {"type": "Point", "coordinates": [13.32965, 52.53129]}, "properties": {"id": "1021350", "name": "Kita Schatzinsel", "phone-number": "+49306460372", "places": 130, "type": "Reguläre Einrichtung", "sponsor-id": "8728", "sponsor-name": "REFORMATIONS-Campus e. V.", "street": "Wiclefstr. 32", "zip-code": 10551, "lat": 52.53129, "lon": 13.32965, "planning-area-id": 1200519}}, {"type": "Feature", "geometry": {"type": "Point", "coordinates": [13.34469, 52.52971]}, "properties": {"id": "1021360", "name": "Kita Theobald Tiger", "phone-number": "+4930965210", "places": 17, "type": "Reguläre Einrichtung", "sponsor-id": "8729", "sponsor-name": "TEVBB Soziale Dienste GmbH", "street": "Perleberger Str. 39", "zip-code": 10559, "lat": 52.52971, "lon": 13.34469, "planning-area-id": 1200625}}, {"type": "Feature", "geometry": {"type": "Point", "coordinates": [13.36805, 52.5318]}, "properties": {"id": "1021370", "name": "INA.KINDERGARTEN Berlin Kita in der Europacity", "phone-number": "+49309818162", "places": 77, "type": "Reguläre Einrichtung", "sponsor-id": "1312", "sponsor-name": "INA.KINDER.GARTEN gGmbH", "street": "Lydia-Rabinowitsch-Str. 5", "zip-code": 10557, "lat": 52.5318, "lon": 13.36805, "planning-area-id": 1200624}}, {"type": "Feature", "geometry": {"type": "Point", "coordinates": [13.36035, 52.53292]}, "properties": {"id": "1021380", "name": "Kita Spatzenvilla", "phone-number": "+49309918959", "places": 25, "type": "Reguläre Einrichtung", "sponsor-id": "8894", "sponsor-name": "E&K Education Care gUG", "street": "Klara-Franke-Str. 1", "zip-code": 10557, "lat": 52.53292, "lon": 13.36035, "planning-area-id": 1200624}}, {"type": "Feature", "geometry": {"type": "Point", "coordinates": [13.36598, 52.53391]}, "properties": {"id": "1021390", "name": "Fröbel-Kindergarten Wasserstadt", "phone-number": "+493055462241", "places": 45, "type": "Reguläre Einrichtung", "sponsor-id": "1227", "sponsor-name": "Fröbel Bildung und Erziehung gGmbH", "street": "Hedwig-Porschütz-Str. 6", "zip-code": 10557, "lat": 52.53391, "lon": 13.36598, "planning-area-id": 1200624}}, {"type": "Feature", "geometry": {"type": "Point", "coordinates": [13.32886, 52.53058]}, "properties": {"id": "1021410", "name": "Kindergarten Beusselstraße", "phone-number": "+493043974213", "places": 120, "type": "Reguläre Einrichtung", "sponsor-id": "1227", "sponsor-name": "Fröbel Bildung und Erziehung gGmbH", "street": "Beusselstr. 32A", "zip-code": 10553, "lat": 52.53058, "lon": 13.32886, "planning-area-id": 1200519}}, {"type": "Feature", "geometry": {"type": "Point", "coordinates": [13.36603, 52.53129]}, "properties": {"id": "1021420", "name": "Kindergarten Lisa-Fittko-Str.", "phone-number": "+49309894975", "places": 130, "type": "Reguläre Einrichtung", "sponsor-id": "1227", "sponsor-name": "Fröbel Bildung und Erziehung gGmbH", "street": "Lisa-Fittko-Str. 9", "zip-code": 10557, "lat": 52.53129, "lon": 13.36603, "planning-area-id": 1200624}}, {"type": "Feature", "geometry": {"type": "Point", "coordinates": [13.33196, 52.52318]}, "properties": {"id": "1021430", "name": "Kita Zinzenprinzen", "phone-number": "+4930916313", "places": 18, "type": "Reguläre Einrichtung", "sponsor-id": "5309", "sponsor-name": "Fokus plus gGmbH", "street": "Zinzendorfstr. 5", "zip-code": 10555, "lat": 52.52318, "lon": 13.33196, "planning-area-id": 1200522}}, {"type": "Feature", "geometry": {"type": "Point", "coordinates": [13.36109, 52.50137]}, "properties": {"id": "1021450", "name": "Heilpädagogische Gruppe Kita Sonnenschein", "phone-number": "+493021005178", "places": 5, "type": "Heilpädagogische Gruppe", "sponsor-id": "1355", "sponsor-name": "Käpt'n Browser gemeinnützige Gesellschaft mit beschränkter Haftung", "street": "Pohlstr. 87", "zip-code": 10785, "lat": 52.50137, "lon": 13.36109, "planning-area-id": 1100103}}, {"type": "Feature", "geometry": {"type": "Point", "coordinates": [13.35855, 52.53436]}, "properties": {"id": "1021460", "name": "Kita auf Augenhöhe", "phone-number": "+493067387333", "places": 23, "type": "Reguläre Einrichtung", "sponsor-id": "9207", "sponsor-name": "auf Augenhöhe e.V.", "street": "Lehrter Str. 54", "zip-code": 10557, "lat": 52.53436, "lon": 13.35855, "planning-area-id": 1200623}}, {"type": "Feature", "geometry": {"type": "Point", "coordinates": [13.3375, 52.51494]}, "properties": {"id": "1021470", "name": "Leo Kirschkern", "phone-number": "+493015566433074", "places": 23, "type": "Reguläre Einrichtung", "sponsor-id": "772", "sponsor-name": "Kirschkern e.V.", "street": "Klopstockstr. 1", "zip-code": 10557, "lat": 52.51494, "lon": 13.3375, "planning-area-id": 1200629}}, {"type": "Feature", "geometry": {"type": "Point", "coordinates": [13.32648, 52.5299]}, "properties": {"id": "1021480", "name": "Little Kiwis", "phone-number": "+49308934", "places": 24, "type": "Reguläre Einrichtung", "sponsor-id": "8597", "sponsor-name": "Little Kiwis Internationaler Kindergarten gemeinnützige UG (haftungsbeschränkt)", "street": "Rostocker Str. 40", "zip-code": 10553, "lat": 52.5299, "lon": 13.32648, "planning-area-id": 1200518}}, {"type": "Feature", "geometry": {"type": "Point", "coordinates": [13.38733, 52.53731]}, "properties": {"id": "1030010", "name": "Kita Ackerstr. 60/Kigä City", "phone-number": "+49304620620", "places": 208, "type": "Reguläre Einrichtung", "sponsor-id": "120", "sponsor-name": "Kindergärten City", "street": "Ackerstr. 60", "zip-code": 13355, "lat": 52.53731, "lon": 13.38733, "planning-area-id": 1300835}}, {"type": "Feature", "geometry": {"type": "Point", "coordinates": [13.34708, 52.54496]}, "properties": {"id": "1030020", "name": "Kita Brüsseler Straße", "phone-number": "+49304541884", "places": 125, "type": "Reguläre Einrichtung", "sponsor-id": "1312", "sponsor-name": "INA.KINDER.GARTEN gGmbH", "street": "Brüsseler Str. 30", "zip-code": 13353, "lat": 52.54496, "lon": 13.34708, "planning-area-id": 1400942}}, {"type": "Feature", "geometry": {"type": "Point", "coordinates": [13.39298, 52.54719]}, "properties": {"id": "1030030", "name": "Kita Ramlerstr. 9-10/Kigä City", "phone-number": "+493043207225", "places": 185, "type": "Reguläre Einrichtung", "sponsor-id": "120", "sponsor-name": "Kindergärten City", "street": "Ramlerstr. 9", "zip-code": 13355, "lat": 52.54719, "lon": 13.39298, "planning-area-id": 1300834}}, {"type": "Feature", "geometry": {"type": "Point", "coordinates": [13.34879, 52.55611]}, "properties": {"id": "1030050", "name": "Kita Edinburger Str. 38/Kigä City", "phone-number": "+49304529987", "places": 62, "type": "Reguläre Einrichtung", "sponsor-id": "120", "sponsor-name": "Kindergärten City", "street": "Edinburger Str. 38", "zip-code": 13349, "lat": 52.55611, "lon": 13.34879, "planning-area-id": 1400940}}, {"type": "Feature", "geometry": {"type": "Point", "coordinates": [13.3292, 52.5597]}, "properties": {"id": "1030080", "name": "Kita Ghanastr. 13/Kigä City", "phone-number": "+49304518047", "places": 75, "type": "Reguläre Einrichtung", "sponsor-id": "120", "sponsor-name": "Kindergärten City", "street": "Ghanastr. 13", "zip-code": 13351, "lat": 52.5597, "lon": 13.3292, "planning-area-id": 1400937}}, {"type": "Feature", "geometry": {"type": "Point", "coordinates": [13.39939, 52.54553]}, "properties": {"id": "1030090", "name": "Kita Sternenhimmel", "phone-number": "+493044383451", "places": 120, "type": "Reguläre Einrichtung", "sponsor-id": "1202", "sponsor-name": "Pfefferwerk Stadtkultur gGmbH", "street": "Graunstr. 11A", "zip-code": 13355, "lat": 52.54553, "lon": 13.39939, "planning-area-id": 1300834}}, {"type": "Feature", "geometry": {"type": "Point", "coordinates": [13.37184, 52.55301]}, "properties": {"id": "1030140", "name": "Kita Kunterbunt", "phone-number": "+493046060825", "places": 105, "type": "Reguläre Einrichtung", "sponsor-id": "1329", "sponsor-name": "Kinder in Bewegung gGmbH Gemeinnützige Kindergarten-Trägergesellschaft des Berliner Sports", "street": "Gottschedstr. 27", "zip-code": 13357, "lat": 52.55301, "lon": 13.37184, "planning-area-id": 1401044}}, {"type": "Feature", "geometry": {"type": "Point", "coordinates": [13.3689, 52.54723]}, "properties": {"id": "1030150", "name": "Kita Reinickendorfer Str. 98/Kigä City", "phone-number": "+493052134200", "places": 130, "type": "Reguläre Einrichtung", "sponsor-id": "120", "sponsor-name": "Kindergärten City", "street": "Reinickendorfer Str. 98", "zip-code": 13347, "lat": 52.54723, "lon": 13.3689, "planning-area-id": 1401043}}, {"type": "Feature", "geometry": {"type": "Point", "coordinates": [13.37125, 52.5418]}, "properties": {"id": "1030160", "name": "Kita Schönwalder Str. 19a/Kigä City", "phone-number": "+493043207212", "places": 123, "type": "Reguläre Einrichtung", "sponsor-id": "120", "sponsor-name": "Kindergärten City", "street": "Schönwalder Str. 19A", "zip-code": 13347, "lat": 52.5418, "lon": 13.37125, "planning-area-id": 1300836}}, {"type": "Feature", "geometry": {"type": "Point", "coordinates": [13.37167, 52.55786]}, "properties": {"id": "1030180", "name": "Kita Der Kinder-Garten in der Schwedenstraße", "phone-number": "+493048478836", "places": 100, "type": "Reguläre Einrichtung", "sponsor-id": "1296", "sponsor-name": "Jugend- und Sozialwerk gGmbH", "street": "Schwedenstr. 9A", "zip-code": 13359, "lat": 52.55786, "lon": 13.37167, "planning-area-id": 1300730}}, {"type": "Feature", "geometry": {"type": "Point", "coordinates": [13.38938, 52.56647]}, "properties": {"id": "1030190", "name": "Kita Nordbahnstr. 15-16/Kigä City", "phone-number": "+49304947236", "places": 130, "type": "Reguläre Einrichtung", "sponsor-id": "120", "sponsor-name": "Kindergärten City", "street": "Nordbahnstr. 15", "zip-code": 13359, "lat": 52.56647, "lon": 13.38938, "planning-area-id": 1300731}}, {"type": "Feature", "geometry": {"type": "Point", "coordinates": [13.38983, 52.54087]}, "properties": {"id": "1030210", "name": "Kita Wattstraße", "phone-number": "+493044383340", "places": 75, "type": "Reguläre Einrichtung", "sponsor-id": "1202", "sponsor-name": "Pfefferwerk Stadtkultur gGmbH", "street": "Wattstr. 16", "zip-code": 13355, "lat": 52.54087, "lon": 13.38983, "planning-area-id": 1300835}}, {"type": "Feature", "geometry": {"type": "Point", "coordinates": [13.37151, 52.55284]}, "properties": {"id": "1030230", "name": "Kita/Kinder in Bewegung (KIB) gGmbH", "phone-number": "+493046060810", "places": 185, "type": "Reguläre Einrichtung", "sponsor-id": "1329", "sponsor-name": "Kinder in Bewegung gGmbH Gemeinnützige Kindergarten-Trägergesellschaft des Berliner Sports", "street": "Gottschedstr. 28", "zip-code": 13357, "lat": 52.55284, "lon": 13.37151, "planning-area-id": 1401044}}, {"type": "Feature", "geometry": {"type": "Point", "coordinates": [13.36032, 52.54063]}, "properties": {"id": "1030240", "name": "Kita Lynarstr. 10/Kigä City", "phone-number": "+49304541972", "places": 114, "type": "Reguläre Einrichtung", "sponsor-id": "120", "sponsor-name": "Kindergärten City", "street": "Lynarstr. 12", "zip-code": 13353, "lat": 52.54063, "lon": 13.36032, "planning-area-id": 1401047}}, {"type": "Feature", "geometry": {"type": "Point", "coordinates": [13.39157, 52.55877]}, "properties": {"id": "1030250", "name": "Kita Freienwalder Str. 19c/Kigä City", "phone-number": "+49304946612", "places": 115, "type": "Reguläre Einrichtung", "sponsor-id": "120", "sponsor-name": "Kindergärten City", "street": "Freienwalder Str. 19C", "zip-code": 13359, "lat": 52.55877, "lon": 13.39157, "planning-area-id": 1300732}}, {"type": "Feature", "geometry": {"type": "Point", "coordinates": [13.34427, 52.55077]}, "properties": {"id": "1030280", "name": "Kita/Kinder in Bewegung (KiB)", "phone-number": "+49304519076", "places": 160, "type": "Reguläre Einrichtung", "sponsor-id": "1329", "sponsor-name": "Kinder in Bewegung gGmbH Gemeinnützige Kindergarten-Trägergesellschaft des Berliner Sports", "street": "Togostr. 67", "zip-code": 13351, "lat": 52.55077, "lon": 13.34427, "planning-area-id": 1400938}}, {"type": "Feature", "geometry": {"type": "Point", "coordinates": [13.37434, 52.54704]}, "properties": {"id": "1030290", "name": "Kita Wiesenstr.", "phone-number": "+493046060490", "places": 147, "type": "Reguläre Einrichtung", "sponsor-id": "107", "sponsor-name": "Orte für Kinder GmbH", "street": "Wiesenstr. 49", "zip-code": 13357, "lat": 52.54704, "lon": 13.37434, "planning-area-id": 1300836}}, {"type": "Feature", "geometry": {"type": "Point", "coordinates": [13.39698, 52.53913]}, "properties": {"id": "1030300", "name": "Kita/Kinder in Bewegung (KIB)", "phone-number": "+4930467764920", "places": 204, "type": "Reguläre Einrichtung", "sponsor-id": "1329", "sponsor-name": "Kinder in Bewegung gGmbH Gemeinnützige Kindergarten-Trägergesellschaft des Berliner Sports", "street": "Wolgaster Str. 4", "zip-code": 13355, "lat": 52.53913, "lon": 13.39698, "planning-area-id": 1300834}}, {"type": "Feature", "geometry": {"type": "Point", "coordinates": [13.38126, 52.55811]}, "properties": {"id": "1030320", "name": "Kita Sprachvielfalt", "phone-number": "+49304935018", "places": 190, "type": "Reguläre Einrichtung", "sponsor-id": "1296", "sponsor-name": "Jugend- und Sozialwerk gGmbH", "street": "Koloniestr. 24A", "zip-code": 13359, "lat": 52.55811, "lon": 13.38126, "planning-area-id": 1300730}}, {"type": "Feature", "geometry": {"type": "Point", "coordinates": [13.34404, 52.55926]}, "properties": {"id": "1030330", "name": "Ev. Kita Kornelius", "phone-number": "+49304521178", "places": 55, "type": "Reguläre Einrichtung", "sponsor-id": "5425", "sponsor-name": "Ev. Kirchenkreisverband für Kindertageseinrichtungen Berlin Mitte-Nord", "street": "Dubliner Str. 29", "zip-code": 13349, "lat": 52.55926, "lon": 13.34404, "planning-area-id": 1400941}}, {"type": "Feature", "geometry": {"type": "Point", "coordinates": [13.3617, 52.54755]}, "properties": {"id": "1030340", "name": "Kindergarten Ruheplatz 13", "phone-number": "+49304620607", "places": 171, "type": "Reguläre Einrichtung", "sponsor-id": "120", "sponsor-name": "Kindergärten City", "street": "Ruheplatzstr. 13", "zip-code": 13347, "lat": 52.54755, "lon": 13.3617, "planning-area-id": 1401043}}, {"type": "Feature", "geometry": {"type": "Point", "coordinates": [13.34202, 52.54891]}, "properties": {"id": "1030350", "name": "Kita Afrikanische Straße", "phone-number": "+493045023277", "places": 150, "type": "Reguläre Einrichtung", "sponsor-id": "1318", "sponsor-name": "Kinder im Kiez gGmbH", "street": "Afrikanische Str. 28", "zip-code": 13351, "lat": 52.54891, "lon": 13.34202, "planning-area-id": 1400938}}, {"type": "Feature", "geometry": {"type": "Point", "coordinates": [13.39357, 52.55544]}, "properties": {"id": "1030370", "name": "Kita Märchenland", "phone-number": "+493049988690", "places": 160, "type": "Reguläre Einrichtung", "sponsor-id": "107", "sponsor-name": "Orte für Kinder GmbH", "street": "Bornholmer Str. 44", "zip-code": 13359, "lat": 52.55544, "lon": 13.39357, "planning-area-id": 1300732}}, {"type": "Feature", "geometry": {"type": "Point", "coordinates": [13.38791, 52.55408]}, "properties": {"id": "1030390", "name": "Kita Stettiner Str. 21-23/Kigä City", "phone-number": "+49304620606", "places": 184, "type": "Reguläre Einrichtung", "sponsor-id": "120", "sponsor-name": "Kindergärten City", "street": "Stettiner Str. 21", "zip-code": 13357, "lat": 52.55408, "lon": 13.38791, "planning-area-id": 1300733}}, {"type": "Feature", "geometry": {"type": "Point", "coordinates": [13.33374, 52.55568]}, "properties": {"id": "1030400", "name": "Kita Maji-Maji-Allee 14/Kigä City", "phone-number": "+49305128686", "places": 160, "type": "Reguläre Einrichtung", "sponsor-id": "120", "sponsor-name": "Kindergärten City", "street": "Maji-Maji-Allee 14", "zip-code": 13351, "lat": 52.55568, "lon": 13.33374, "planning-area-id": 1400937}}, {"type": "Feature", "geometry": {"type": "Point", "coordinates": [13.3592, 52.54784]}, "properties": {"id": "1030410", "name": "Ev. Kita Nazareth", "phone-number": "+49304566291", "places": 75, "type": "Reguläre Einrichtung", "sponsor-id": "5425", "sponsor-name": "Ev. Kirchenkreisverband für Kindertageseinrichtungen Berlin Mitte-Nord", "street": "Nazarethkirchstr. 50", "zip-code": 13347, "lat": 52.54784, "lon": 13.3592, "planning-area-id": 1401048}}, {"type": "Feature", "geometry": {"type": "Point", "coordinates": [13.34961, 52.54876]}, "properties": {"id": "1030420", "name": "Ev. Kinderhaus Kapernaum", "phone-number": "+49304536307", "places": 70, "type": "Reguläre Einrichtung", "sponsor-id": "5425", "sponsor-name": "Ev. Kirchenkreisverband für Kindertageseinrichtungen Berlin Mitte-Nord", "street": "Seestr. 35", "zip-code": 13353, "lat": 52.54876, "lon": 13.34961, "planning-area-id": 1400942}}, {"type": "Feature", "geometry": {"type": "Point", "coordinates": [13.38788, 52.55861]}, "properties": {"id": "1030430", "name": "Ev. Kita Stephanus", "phone-number": "+49304936262", "places": 80, "type": "Reguläre Einrichtung", "sponsor-id": "5425", "sponsor-name": "Ev. Kirchenkreisverband für Kindertageseinrichtungen Berlin Mitte-Nord", "street": "Soldiner Str. 21", "zip-code": 13359, "lat": 52.55861, "lon": 13.38788, "planning-area-id": 1300732}}, {"type": "Feature", "geometry": {"type": "Point", "coordinates": [13.35499, 52.54164]}, "properties": {"id": "1030440", "name": "Ev. Osterkita", "phone-number": "+49304543559", "places": 85, "type": "Reguläre Einrichtung", "sponsor-id": "5425", "sponsor-name": "Ev. Kirchenkreisverband für Kindertageseinrichtungen Berlin Mitte-Nord", "street": "Sprengelstr. 35", "zip-code": 13353, "lat": 52.54164, "lon": 13.35499, "planning-area-id": 1401046}}, {"type": "Feature", "geometry": {"type": "Point", "coordinates": [13.38365, 52.53737]}, "properties": {"id": "1030470", "name": "Kath. Kita St. Sebastian", "phone-number": "+4930259365141", "places": 55, "type": "Reguläre Einrichtung", "sponsor-id": "9193", "sponsor-name": "Kitas im Erzbistum Berlin-Zweckverband der katholischen Kirchengemeinden", "street": "Feldstr. 20", "zip-code": 13355, "lat": 52.53737, "lon": 13.38365, "planning-area-id": 1300835}}, {"type": "Feature", "geometry": {"type": "Point", "coordinates": [13.3643, 52.55078]}, "properties": {"id": "1030480", "name": "Kath. Kita St. Robert", "phone-number": "+4930259365154", "places": 65, "type": "Reguläre Einrichtung", "sponsor-id": "9193", "sponsor-name": "Kitas im Erzbistum Berlin-Zweckverband der katholischen Kirchengemeinden", "street": "Hochstädter Str. 14", "zip-code": 13347, "lat": 52.55078, "lon": 13.3643, "planning-area-id": 1401049}}, {"type": "Feature", "geometry": {"type": "Point", "coordinates": [13.36564, 52.55432]}, "properties": {"id": "1030510", "name": "AWO Kita Sonnenblume", "phone-number": "+49304556650", "places": 130, "type": "Reguläre Einrichtung", "sponsor-id": "150", "sponsor-name": "Arbeiterwohlfahrt Kreisverband Berlin-Mitte e.V.", "street": "Reinickendorfer Str. 62", "zip-code": 13347, "lat": 52.55432, "lon": 13.36564, "planning-area-id": 1401049}}, {"type": "Feature", "geometry": {"type": "Point", "coordinates": [13.38075, 52.55047]}, "properties": {"id": "1030520", "name": "EKT - Kila Spatzenkinder", "phone-number": "+4930+49304655897", "places": 18, "type": "Reguläre Einrichtung", "sponsor-id": "513", "sponsor-name": "Unsere Zukunft e.V.", "street": "Bastianstr. 18", "zip-code": 13357, "lat": 52.55047, "lon": 13.38075, "planning-area-id": 1300836}}, {"type": "Feature", "geometry": {"type": "Point", "coordinates": [13.39181, 52.55417]}, "properties": {"id": "1030530", "name": "EKT - Flohzirkus Wedding", "phone-number": "+49304948076", "places": 18, "type": "Reguläre Einrichtung", "sponsor-id": "628", "sponsor-name": "Flohzirkus Wedding e.V.", "street": "Eulerstr. 10", "zip-code": 13357, "lat": 52.55417, "lon": 13.39181, "planning-area-id": 1300733}}, {"type": "Feature", "geometry": {"type": "Point", "coordinates": [13.35385, 52.5414]}, "properties": {"id": "1030540", "name": "Freche Früchte", "phone-number": "+49304536620", "places": 25, "type": "Reguläre Einrichtung", "sponsor-id": "8683", "sponsor-name": "KiTa Freche Früchte gemeinnützige UG (haftungsbeschränkt)", "street": "Sprengelstr. 33", "zip-code": 13353, "lat": 52.5414, "lon": 13.35385, "planning-area-id": 1401046}}, {"type": "Feature", "geometry": {"type": "Point", "coordinates": [13.35038, 52.53973]}, "properties": {"id": "1030550", "name": "EKT Sonnenblume", "places": 18, "type": "Reguläre Einrichtung", "sponsor-id": "978", "sponsor-name": "Elterninitiativkindertagesstätte Sonnenblume e. V.", "street": "Fehmarner Str. 14", "zip-code": 13353, "lat": 52.53973, "lon": 13.35038, "planning-area-id": 1401046}}, {"type": "Feature", "geometry": {"type": "Point", "coordinates": [13.34359, 52.55609]}, "properties": {"id": "1030580", "name": "EKT Gänseblümchen", "phone-number": "+49304514024", "places": 17, "type": "Reguläre Einrichtung", "sponsor-id": "642", "sponsor-name": "GÄNSEBLÜMCHEN e.V.", "street": "Glasgower Str. 26", "zip-code": 13349, "lat": 52.55609, "lon": 13.34359, "planning-area-id": 1400939}}, {"type": "Feature", "geometry": {"type": "Point", "coordinates": [13.38651, 52.55176]}, "properties": {"id": "1030600", "name": "EKT - Stadtkinder", "phone-number": "+493027018926", "places": 27, "type": "Reguläre Einrichtung", "sponsor-id": "995", "sponsor-name": "Stadtkinder e. V.", "street": "Grüntaler Str. 8", "zip-code": 13357, "lat": 52.55176, "lon": 13.38651, "planning-area-id": 1300733}}, {"type": "Feature", "geometry": {"type": "Point", "coordinates": [13.34851, 52.55391]}, "properties": {"id": "1030610", "name": "Kleine Himmelswolke", "phone-number": "+49304519130", "places": 21, "type": "Reguläre Einrichtung", "sponsor-id": "785", "sponsor-name": "Kleine Himmelswolke e.V.", "street": "Türkenstr. 5", "zip-code": 13349, "lat": 52.55391, "lon": 13.34851, "planning-area-id": 1400939}}, {"type": "Feature", "geometry": {"type": "Point", "coordinates": [13.34763, 52.54655]}, "properties": {"id": "1030620", "name": "EKT Krümelbande", "phone-number": "+493098430863", "places": 13, "type": "Reguläre Einrichtung", "sponsor-id": "807", "sponsor-name": "Eltern-Initiativ-Kindertagesstätte Krümelbande e. V.", "street": "Lütticher Str. 5", "zip-code": 13353, "lat": 52.54655, "lon": 13.34763, "planning-area-id": 1400942}}, {"type": "Feature", "geometry": {"type": "Point", "coordinates": [13.35725, 52.5513]}, "properties": {"id": "1030640", "name": "EKT Tausendfüßler", "phone-number": "+49304562624", "places": 19, "type": "Reguläre Einrichtung", "sponsor-id": "1010", "sponsor-name": "EIKITA Tausendfüßler e. V.", "street": "Amsterdamer Str. 12", "zip-code": 13347, "lat": 52.5513, "lon": 13.35725, "planning-area-id": 1401048}}, {"type": "Feature", "geometry": {"type": "Point", "coordinates": [13.3593, 52.54239]}, "properties": {"id": "1030700", "name": "EKT - Pustebär", "phone-number": "+49304533076", "places": 13, "type": "Reguläre Einrichtung", "sponsor-id": "1039", "sponsor-name": "Verein zur Förderung integrativer Erziehung e. V.", "street": "Sparrstr. 19", "zip-code": 13353, "lat": 52.54239, "lon": 13.3593, "planning-area-id": 1401047}}, {"type": "Feature", "geometry": {"type": "Point", "coordinates": [13.35941, 52.54227]}, "properties": {"id": "1030710", "name": "EKT - \"Eisbär\"", "phone-number": "+49304539038", "places": 15, "type": "Reguläre Einrichtung", "sponsor-id": "1039", "sponsor-name": "Verein zur Förderung integrativer Erziehung e. V.", "street": "Sparrstr. 20", "zip-code": 13353, "lat": 52.54227, "lon": 13.35941, "planning-area-id": 1401047}}, {"type": "Feature", "geometry": {"type": "Point", "coordinates": [13.34705, 52.5493]}, "properties": {"id": "1030720", "name": "EKT - Tüte Mücken", "phone-number": "+49304512076", "places": 60, "type": "Reguläre Einrichtung", "sponsor-id": "1027", "sponsor-name": "Tüte Mücken e.V.", "street": "Togostr. 78", "zip-code": 13351, "lat": 52.5493, "lon": 13.34705, "planning-area-id": 1400938}}, {"type": "Feature", "geometry": {"type": "Point", "coordinates": [13.34954, 52.555]}, "properties": {"id": "1030730", "name": "Pädag.Initiative EKT am Schillerpark", "phone-number": "+49304514073", "places": 25, "type": "Reguläre Einrichtung", "sponsor-id": "555", "sponsor-name": "Pädagogische Initiative EKT am Schillerpark e.V.", "street": "Türkenstr. 14", "zip-code": 13349, "lat": 52.555, "lon": 13.34954, "planning-area-id": 1400939}}, {"type": "Feature", "geometry": {"type": "Point", "coordinates": [13.37174, 52.54879]}, "properties": {"id": "1030740", "name": "EKT - Kinderhütte Wiesenstraße", "phone-number": "+49304659100", "places": 20, "type": "Reguläre Einrichtung", "sponsor-id": "739", "sponsor-name": "Kinderhütte Wiesenstraße e. V.", "street": "Wiesenstr. 28", "zip-code": 13357, "lat": 52.54879, "lon": 13.37174, "planning-area-id": 1401044}}, {"type": "Feature", "geometry": {"type": "Point", "coordinates": [13.35953, 52.54214]}, "properties": {"id": "1030750", "name": "EKT Sparrbande", "phone-number": "+49304533773", "places": 15, "type": "Reguläre Einrichtung", "sponsor-id": "986", "sponsor-name": "EKT Sparrbande e.V.", "street": "Sparrstr. 21", "zip-code": 13353, "lat": 52.54214, "lon": 13.35953, "planning-area-id": 1401047}}, {"type": "Feature", "geometry": {"type": "Point", "coordinates": [13.35752, 52.55147]}, "properties": {"id": "1030760", "name": "Kita A13", "phone-number": "+4930450812660", "places": 45, "type": "Reguläre Einrichtung", "sponsor-id": "1211", "sponsor-name": "Deutscher Kinderschutzbund Landesverband Berlin e. V.", "street": "Amsterdamer Str. 13", "zip-code": 13347, "lat": 52.55147, "lon": 13.35752, "planning-area-id": 1401048}}, {"type": "Feature", "geometry": {"type": "Point", "coordinates": [13.37279, 52.54847]}, "properties": {"id": "1030770", "name": "Kinderhaus Kunterbunt", "phone-number": "+49304622076", "places": 115, "type": "Reguläre Einrichtung", "sponsor-id": "1260", "sponsor-name": "Unionhilfswerk Sozialeinrichtungen gemeinnützige Gesellschaft mbH", "street": "Wiesenstr. 25", "zip-code": 13357, "lat": 52.54847, "lon": 13.37279, "planning-area-id": 1401044}}, {"type": "Feature", "geometry": {"type": "Point", "coordinates": [13.3354, 52.55454]}, "properties": {"id": "1030780", "name": "Deutsch-Französische Kita/Kigä City", "phone-number": "+49304528036", "places": 150, "type": "Reguläre Einrichtung", "sponsor-id": "120", "sponsor-name": "Kindergärten City", "street": "Afrikanische Str. 121", "zip-code": 13351, "lat": 52.55454, "lon": 13.3354, "planning-area-id": 1400937}}, {"type": "Feature", "geometry": {"type": "Point", "coordinates": [13.37602, 52.5551]}, "properties": {"id": "1030800", "name": "EKT Jo Jo", "phone-number": "+49304656455", "places": 26, "type": "Reguläre Einrichtung", "sponsor-id": "693", "sponsor-name": "Jo-Jo e.V.", "street": "Schwedenstr. 3A", "zip-code": 13357, "lat": 52.5551, "lon": 13.37602, "planning-area-id": 1401045}}, {"type": "Feature", "geometry": {"type": "Point", "coordinates": [13.36149, 52.55185]}, "properties": {"id": "1030820", "name": "Kita Liebenwalder Str. 45/Kigä City", "phone-number": "+49304620660", "places": 135, "type": "Reguläre Einrichtung", "sponsor-id": "120", "sponsor-name": "Kindergärten City", "street": "Liebenwalder Str. 45", "zip-code": 13347, "lat": 52.55185, "lon": 13.36149, "planning-area-id": 1401048}}, {"type": "Feature", "geometry": {"type": "Point", "coordinates": [13.35966, 52.54199]}, "properties": {"id": "1030830", "name": "Wolke 7 gGmbH", "phone-number": "+493015151391160", "places": 25, "type": "Reguläre Einrichtung", "sponsor-id": "1075", "sponsor-name": "Wolke 7 gemeinnützige Gesellschaft mbH", "street": "Sparrstr. 22", "zip-code": 13353, "lat": 52.54199, "lon": 13.35966, "planning-area-id": 1401047}}, {"type": "Feature", "geometry": {"type": "Point", "coordinates": [13.39589, 52.54033]}, "properties": {"id": "1030870", "name": "EKT Omas Garten", "phone-number": "+49304642085", "places": 62, "type": "Reguläre Einrichtung", "sponsor-id": "882", "sponsor-name": "Bürgerinitiative Omas Garten e.V.", "street": "Stralsunder Str. 7", "zip-code": 13355, "lat": 52.54033, "lon": 13.39589, "planning-area-id": 1300834}}, {"type": "Feature", "geometry": {"type": "Point", "coordinates": [13.38624, 52.56017]}, "properties": {"id": "1030880", "name": "EKT - Villa Römer", "phone-number": "+49304948878", "places": 32, "type": "Reguläre Einrichtung", "sponsor-id": "1051", "sponsor-name": "Villa Römer e. V.", "street": "Wollankstr. 61D", "zip-code": 13359, "lat": 52.56017, "lon": 13.38624, "planning-area-id": 1300731}}, {"type": "Feature", "geometry": {"type": "Point", "coordinates": [13.37257, 52.55487]}, "properties": {"id": "1030900", "name": "Kita Exerzierstr. 32a/Kigä City", "phone-number": "+49304925650", "places": 133, "type": "Reguläre Einrichtung", "sponsor-id": "120", "sponsor-name": "Kindergärten City", "street": "Exerzierstr. 32A", "zip-code": 13357, "lat": 52.55487, "lon": 13.37257, "planning-area-id": 1401045}}, {"type": "Feature", "geometry": {"type": "Point", "coordinates": [13.39438, 52.54763]}, "properties": {"id": "1030910", "name": "EKT - Mauerspechte", "phone-number": "+493046068040", "places": 18, "type": "Reguläre Einrichtung", "sponsor-id": "842", "sponsor-name": "Mauerspechte e.V.", "street": "Swinemünder Str. 64", "zip-code": 13355, "lat": 52.54763, "lon": 13.39438, "planning-area-id": 1300834}}, {"type": "Feature", "geometry": {"type": "Point", "coordinates": [13.36538, 52.55357]}, "properties": {"id": "1030920", "name": "EKT - Doppelpünktchen", "phone-number": "+49304556960", "places": 17, "type": "Reguläre Einrichtung", "sponsor-id": "596", "sponsor-name": "Doppelpünktchen e.V.", "street": "Oudenarder Str. 1B", "zip-code": 13347, "lat": 52.55357, "lon": 13.36538, "planning-area-id": 1401049}}, {"type": "Feature", "geometry": {"type": "Point", "coordinates": [13.38433, 52.55937]}, "properties": {"id": "1030930", "name": "EKT - Klapperkiste", "phone-number": "+493042075476", "places": 20, "type": "Reguläre Einrichtung", "sponsor-id": "780", "sponsor-name": "Klapperkiste e. V.", "street": "Soldiner Str. 33", "zip-code": 13359, "lat": 52.55937, "lon": 13.38433, "planning-area-id": 1300731}}, {"type": "Feature", "geometry": {"type": "Point", "coordinates": [13.34747, 52.55625]}, "properties": {"id": "1030940", "name": "Montessori Kinderhaus", "phone-number": "+49304536071", "places": 25, "type": "Reguläre Einrichtung", "sponsor-id": "862", "sponsor-name": "Maria Montessori Kinderwelten gGmbH", "street": "Edinburger Str. 39", "zip-code": 13349, "lat": 52.55625, "lon": 13.34747, "planning-area-id": 1400939}}, {"type": "Feature", "geometry": {"type": "Point", "coordinates": [13.35864, 52.55437]}, "properties": {"id": "1030960", "name": "Kita Seestraße", "phone-number": "+49304568087", "places": 71, "type": "Reguläre Einrichtung", "sponsor-id": "1318", "sponsor-name": "Kinder im Kiez gGmbH", "street": "Seestr. 90", "zip-code": 13347, "lat": 52.55437, "lon": 13.35864, "planning-area-id": 1400940}}, {"type": "Feature", "geometry": {"type": "Point", "coordinates": [13.38719, 52.55226]}, "properties": {"id": "1030970", "name": "EKT - Stadtkinder", "phone-number": "+493027018926", "places": 30, "type": "Reguläre Einrichtung", "sponsor-id": "995", "sponsor-name": "Stadtkinder e. V.", "street": "Grüntaler Str. 12", "zip-code": 13357, "lat": 52.55226, "lon": 13.38719, "planning-area-id": 1300733}}, {"type": "Feature", "geometry": {"type": "Point", "coordinates": [13.39289, 52.55561]}, "properties": {"id": "1030980", "name": "Kita Grüntaler Straße", "phone-number": "+49304947163", "places": 130, "type": "Reguläre Einrichtung", "sponsor-id": "1312", "sponsor-name": "INA.KINDER.GARTEN gGmbH", "street": "Grüntaler Str. 34", "zip-code": 13359, "lat": 52.55561, "lon": 13.39289, "planning-area-id": 1300732}}, {"type": "Feature", "geometry": {"type": "Point", "coordinates": [13.37537, 52.53962]}, "properties": {"id": "1030990", "name": "Kita Neue Hochstr. 44/Kigä City", "phone-number": "+49304614047", "places": 135, "type": "Reguläre Einrichtung", "sponsor-id": "120", "sponsor-name": "Kindergärten City", "street": "Neue Hochstr. 44", "zip-code": 13347, "lat": 52.53962, "lon": 13.37537, "planning-area-id": 1300836}}, {"type": "Feature", "geometry": {"type": "Point", "coordinates": [13.35691, 52.55198]}, "properties": {"id": "1031000", "name": "Groni-Weddinger Kinder- u.Jugendzentrum", "phone-number": "+49304559012", "places": 25, "type": "Reguläre Einrichtung", "sponsor-id": "1098", "sponsor-name": "Weddinger Kinder- und Jugendzentrum e.V.", "street": "Malplaquetstr. 24", "zip-code": 13347, "lat": 52.55198, "lon": 13.35691, "planning-area-id": 1401048}}, {"type": "Feature", "geometry": {"type": "Point", "coordinates": [13.35558, 52.55056]}, "properties": {"id": "1031010", "name": "Groni-Weddinger Kinder- u.Jugendzentrum", "phone-number": "+49304562381", "places": 24, "type": "Reguläre Einrichtung", "sponsor-id": "1098", "sponsor-name": "Weddinger Kinder- und Jugendzentrum e.V.", "street": "Amsterdamer Str. 19B", "zip-code": 13347, "lat": 52.55056, "lon": 13.35558, "planning-area-id": 1401048}}, {"type": "Feature", "geometry": {"type": "Point", "coordinates": [13.38912, 52.55123]}, "properties": {"id": "1031020", "name": "EKT - Auenland", "phone-number": "+49304941526", "places": 40, "type": "Reguläre Einrichtung", "sponsor-id": "532", "sponsor-name": "Arbeitskreis Fidele Pädagogik e.V.", "street": "Zingster Str. 12", "zip-code": 13357, "lat": 52.55123, "lon": 13.38912, "planning-area-id": 1300733}}, {"type": "Feature", "geometry": {"type": "Point", "coordinates": [13.36031, 52.55009]}, "properties": {"id": "1031040", "name": "Groni-Weddinger Kinder- u.Jugendzentrum - Malplaquet 37", "phone-number": "+493080929277", "places": 22, "type": "Reguläre Einrichtung", "sponsor-id": "1098", "sponsor-name": "Weddinger Kinder- und Jugendzentrum e.V.", "street": "Malplaquetstr. 37", "zip-code": 13347, "lat": 52.55009, "lon": 13.36031, "planning-area-id": 1401048}}, {"type": "Feature", "geometry": {"type": "Point", "coordinates": [13.36068, 52.55024]}, "properties": {"id": "1031050", "name": "Groni-Weddinger Kinder- u.Jugendzentrum", "phone-number": "+49304558636", "places": 26, "type": "Reguläre Einrichtung", "sponsor-id": "1098", "sponsor-name": "Weddinger Kinder- und Jugendzentrum e.V.", "street": "Malplaquetstr. 10", "zip-code": 13347, "lat": 52.55024, "lon": 13.36068, "planning-area-id": 1401048}}, {"type": "Feature", "geometry": {"type": "Point", "coordinates": [13.36506, 52.54784]}, "properties": {"id": "1031060", "name": "Kita Akila", "phone-number": "+49304617000", "places": 25, "type": "Reguläre Einrichtung", "sponsor-id": "1203", "sponsor-name": "AKILA (Arbeiterkinderladen) e. V.", "street": "Antonstr. 19", "zip-code": 13347, "lat": 52.54784, "lon": 13.36506, "planning-area-id": 1401043}}, {"type": "Feature", "geometry": {"type": "Point", "coordinates": [13.3937, 52.54765]}, "properties": {"id": "1031110", "name": "EKT - Waldorf-Kindergarten Berlin-Wedding", "phone-number": "+49304648222", "places": 41, "type": "Reguläre Einrichtung", "sponsor-id": "1057", "sponsor-name": "Waldorf-Kindergarten Berlin-Wedding e.V.", "street": "Swinemünder Str. 65", "zip-code": 13355, "lat": 52.54765, "lon": 13.3937, "planning-area-id": 1300834}}, {"type": "Feature", "geometry": {"type": "Point", "coordinates": [13.3761, 52.56012]}, "properties": {"id": "1031130", "name": "Kita/Kinder in Bewegung (KiB)", "phone-number": "+49304911515", "places": 135, "type": "Reguläre Einrichtung", "sponsor-id": "1329", "sponsor-name": "Kinder in Bewegung gGmbH Gemeinnützige Kindergarten-Trägergesellschaft des Berliner Sports", "street": "Drontheimer Str. 23A", "zip-code": 13359, "lat": 52.56012, "lon": 13.3761, "planning-area-id": 1300730}}, {"type": "Feature", "geometry": {"type": "Point", "coordinates": [13.32457, 52.56008]}, "properties": {"id": "1031140", "name": "EKT Wilde Wiese", "phone-number": "+493041700033", "places": 50, "type": "Reguläre Einrichtung", "sponsor-id": "1053", "sponsor-name": "Elternverein \"Wilde Wiese\" e. V.", "street": "Kurt-Schumacher-Damm 41", "zip-code": 13405, "lat": 52.56008, "lon": 13.32457, "planning-area-id": 1400937}}, {"type": "Feature", "geometry": {"type": "Point", "coordinates": [13.38509, 52.55658]}, "properties": {"id": "1031150", "name": "Kita Putte", "phone-number": "+49304933088", "places": 30, "type": "Reguläre Einrichtung", "sponsor-id": "1265", "sponsor-name": "Putte e.V. - Ausländer- und Sonderprojekt im Wedding -", "street": "Prinzenallee 24", "zip-code": 13359, "lat": 52.55658, "lon": 13.38509, "planning-area-id": 1300732}}, {"type": "Feature", "geometry": {"type": "Point", "coordinates": [13.38119, 52.55482]}, "properties": {"id": "1031170", "name": "Kita Osloer Str. 105D/Kigä City", "phone-number": "+493049308814", "places": 100, "type": "Reguläre Einrichtung", "sponsor-id": "120", "sponsor-name": "Kindergärten City", "street": "Osloer Str. 105D", "zip-code": 13359, "lat": 52.55482, "lon": 13.38119, "planning-area-id": 1401045}}, {"type": "Feature", "geometry": {"type": "Point", "coordinates": [13.36123, 52.55184]}, "properties": {"id": "1031180", "name": "EKT - Die kleinen Chaoten", "phone-number": "+493045803777", "places": 23, "type": "Reguläre Einrichtung", "sponsor-id": "580", "sponsor-name": "DIE KLEINEN CHAOTEN e.V.", "street": "Liebenwalder Str. 44", "zip-code": 13347, "lat": 52.55184, "lon": 13.36123, "planning-area-id": 1401048}}, {"type": "Feature", "geometry": {"type": "Point", "coordinates": [13.39004, 52.5651]}, "properties": {"id": "1031190", "name": "EKT - Die Ministerne", "phone-number": "+493017622342474", "places": 18, "type": "Reguläre Einrichtung", "sponsor-id": "1126", "sponsor-name": "EIKITA MINISTERNE e. V.", "street": "Sternstr. 9", "zip-code": 13359, "lat": 52.5651, "lon": 13.39004, "planning-area-id": 1300731}}, {"type": "Feature", "geometry": {"type": "Point", "coordinates": [13.38966, 52.5445]}, "properties": {"id": "1031200", "name": "Ev. Kita am Humboldthain", "phone-number": "+493046404161", "places": 70, "type": "Reguläre Einrichtung", "sponsor-id": "5425", "sponsor-name": "Ev. Kirchenkreisverband für Kindertageseinrichtungen Berlin Mitte-Nord", "street": "Gustav-Meyer-Allee 2", "zip-code": 13355, "lat": 52.5445, "lon": 13.38966, "planning-area-id": 1300835}}, {"type": "Feature", "geometry": {"type": "Point", "coordinates": [13.34926, 52.54637]}, "properties": {"id": "1031220", "name": "EKT Bäumchen", "phone-number": "+493084422358", "places": 20, "type": "Reguläre Einrichtung", "sponsor-id": "1163", "sponsor-name": "Bäumchen e. V.", "street": "Brüsseler Str. 38", "zip-code": 13353, "lat": 52.54637, "lon": 13.34926, "planning-area-id": 1400942}}, {"type": "Feature", "geometry": {"type": "Point", "coordinates": [13.34854, 52.55432]}, "properties": {"id": "1031240", "name": "EKT Kleine Himmelswolke", "phone-number": "+493051574771", "places": 20, "type": "Reguläre Einrichtung", "sponsor-id": "785", "sponsor-name": "Kleine Himmelswolke e.V.", "street": "Türkenstr. 20", "zip-code": 13349, "lat": 52.55432, "lon": 13.34854, "planning-area-id": 1400939}}, {"type": "Feature", "geometry": {"type": "Point", "coordinates": [13.36059, 52.53891]}, "properties": {"id": "1031260", "name": "Kita Bunter Stern", "phone-number": "+493046067089", "places": 45, "type": "Reguläre Einrichtung", "sponsor-id": "1306", "sponsor-name": "SEHstern e.V.", "street": "Tegeler Str. 6", "zip-code": 13353, "lat": 52.53891, "lon": 13.36059, "planning-area-id": 1300836}}, {"type": "Feature", "geometry": {"type": "Point", "coordinates": [13.38612, 52.55147]}, "properties": {"id": "1031300", "name": "EKT - Stadtkinder", "phone-number": "+493027018926", "places": 20, "type": "Reguläre Einrichtung", "sponsor-id": "995", "sponsor-name": "Stadtkinder e. V.", "street": "Grüntaler Str. 6", "zip-code": 13357, "lat": 52.55147, "lon": 13.38612, "planning-area-id": 1300733}}, {"type": "Feature", "geometry": {"type": "Point", "coordinates": [13.3598, 52.54821]}, "properties": {"id": "1031310", "name": "Kita Nazarethkirchstraße", "phone-number": "+493056977489", "places": 45, "type": "Reguläre Einrichtung", "sponsor-id": "8324", "sponsor-name": "KITA Nazar gemeinnützige GmbH", "street": "Nazarethkirchstr. 49", "zip-code": 13347, "lat": 52.54821, "lon": 13.3598, "planning-area-id": 1401048}}, {"type": "Feature", "geometry": {"type": "Point", "coordinates": [13.34784, 52.54233]}, "properties": {"id": "1031320", "name": "Kita Augustenburger Platz", "phone-number": "+493081799165", "places": 125, "type": "Reguläre Einrichtung", "sponsor-id": "1312", "sponsor-name": "INA.KINDER.GARTEN gGmbH", "street": "Augustenburger Platz 1", "zip-code": 13353, "lat": 52.54233, "lon": 13.34784, "planning-area-id": 1400938}}, {"type": "Feature", "geometry": {"type": "Point", "coordinates": [13.34519, 52.55596]}, "properties": {"id": "1031330", "name": "Kita RoKoKids", "phone-number": "+49304628728", "places": 30, "type": "Reguläre Einrichtung", "sponsor-id": "1367", "sponsor-name": "Ki.E.Ka. e.V.", "street": "Ofener Str. 4", "zip-code": 13349, "lat": 52.55596, "lon": 13.34519, "planning-area-id": 1400939}}, {"type": "Feature", "geometry": {"type": "Point", "coordinates": [13.38439, 52.53854]}, "properties": {"id": "1031340", "name": "Kita phorminis", "phone-number": "+4930467986315", "places": 160, "type": "Reguläre Einrichtung", "sponsor-id": "7387", "sponsor-name": "PHORMS Berlin gemeinnützige GmbH", "street": "Ackerstr. 76", "zip-code": 13355, "lat": 52.53854, "lon": 13.38439, "planning-area-id": 1300835}}, {"type": "Feature", "geometry": {"type": "Point", "coordinates": [13.35824, 52.54003]}, "properties": {"id": "1031360", "name": "EKT Frischlinge", "phone-number": "+49304538849", "places": 13, "type": "Reguläre Einrichtung", "sponsor-id": "639", "sponsor-name": "EIKITA Frischlinge e.V.", "street": "Tegeler Str. 44", "zip-code": 13353, "lat": 52.54003, "lon": 13.35824, "planning-area-id": 1401046}}, {"type": "Feature", "geometry": {"type": "Point", "coordinates": [13.38051, 52.53987]}, "properties": {"id": "1031370", "name": "Kita Kinderparadies Wedding", "phone-number": "+493065706645", "places": 84, "type": "Reguläre Einrichtung", "sponsor-id": "8476", "sponsor-name": "IBEB Initiative für Bildung und Erziehung Berlin gemeinnützige GmbH", "street": "Ackerstr. 104", "zip-code": 13355, "lat": 52.53987, "lon": 13.38051, "planning-area-id": 1300835}}, {"type": "Feature", "geometry": {"type": "Point", "coordinates": [13.36192, 52.55364]}, "properties": {"id": "1031380", "name": "Kita Weiße Wolke", "phone-number": "+493081799940", "places": 20, "type": "Reguläre Einrichtung", "sponsor-id": "1408", "sponsor-name": "Kita Weiße Wolke e.V.", "street": "Groninger Str. 32", "zip-code": 13347, "lat": 52.55364, "lon": 13.36192, "planning-area-id": 1401049}}, {"type": "Feature", "geometry": {"type": "Point", "coordinates": [13.38987, 52.55314]}, "properties": {"id": "1031400", "name": "Kita Arcobaleno", "phone-number": "+493050597358", "places": 36, "type": "Reguläre Einrichtung", "sponsor-id": "1367", "sponsor-name": "Ki.E.Ka. e.V.", "street": "Eulerstr. 19A", "zip-code": 13357, "lat": 52.55314, "lon": 13.38987, "planning-area-id": 1300733}}, {"type": "Feature", "geometry": {"type": "Point", "coordinates": [13.3813, 52.55083]}, "properties": {"id": "1031420", "name": "Kita Ghislan", "phone-number": "+493046061094", "places": 22, "type": "Reguläre Einrichtung", "sponsor-id": "7421", "sponsor-name": "Ghislan e.V.", "street": "Bastianstr. 21", "zip-code": 13357, "lat": 52.55083, "lon": 13.3813, "planning-area-id": 1300836}}, {"type": "Feature", "geometry": {"type": "Point", "coordinates": [13.36114, 52.54963]}, "properties": {"id": "1031430", "name": "Kita Malplaquetstraße", "phone-number": "+493050564222", "places": 30, "type": "Reguläre Einrichtung", "sponsor-id": "7424", "sponsor-name": "Kinderland Wedding e.V.", "street": "Malplaquetstr. 41", "zip-code": 13347, "lat": 52.54963, "lon": 13.36114, "planning-area-id": 1401048}}, {"type": "Feature", "geometry": {"type": "Point", "coordinates": [13.35653, 52.54579]}, "properties": {"id": "1031450", "name": "Kita Paradiesvögel Genterstraße", "phone-number": "+493017630724400", "places": 29, "type": "Reguläre Einrichtung", "sponsor-id": "7464", "sponsor-name": "eventus Bildung gGmbH", "street": "Genter Str. 24", "zip-code": 13353, "lat": 52.54579, "lon": 13.35653, "planning-area-id": 1400942}}, {"type": "Feature", "geometry": {"type": "Point", "coordinates": [13.35004, 52.55912]}, "properties": {"id": "1031520", "name": "Schillerpark-Kita", "phone-number": "+493025322324", "places": 20, "type": "Reguläre Einrichtung", "sponsor-id": "1367", "sponsor-name": "Ki.E.Ka. e.V.", "street": "Bristolstr. 19", "zip-code": 13349, "lat": 52.55912, "lon": 13.35004, "planning-area-id": 1400940}}, {"type": "Feature", "geometry": {"type": "Point", "coordinates": [13.36719, 52.54666]}, "properties": {"id": "1031530", "name": "Kita Paradiesvögel Plantagenstraße", "phone-number": "+493056978795", "places": 60, "type": "Reguläre Einrichtung", "sponsor-id": "7464", "sponsor-name": "eventus Bildung gGmbH", "street": "Plantagenstr. 9", "zip-code": 13347, "lat": 52.54666, "lon": 13.36719, "planning-area-id": 1401043}}, {"type": "Feature", "geometry": {"type": "Point", "coordinates": [13.36189, 52.55375]}, "properties": {"id": "1031550", "name": "Kita Groninger Straße 34", "phone-number": "+493081799940", "places": 13, "type": "Reguläre Einrichtung", "sponsor-id": "1408", "sponsor-name": "Kita Weiße Wolke e.V.", "street": "Groninger Str. 34", "zip-code": 13347, "lat": 52.55375, "lon": 13.36189, "planning-area-id": 1401049}}, {"type": "Feature", "geometry": {"type": "Point", "coordinates": [13.37032, 52.55296]}, "properties": {"id": "1031560", "name": "Kita Rauda", "phone-number": "+493081476961", "places": 40, "type": "Reguläre Einrichtung", "sponsor-id": "7781", "sponsor-name": "Rauda e. V.", "street": "Schulstr. 52", "zip-code": 13347, "lat": 52.55296, "lon": 13.37032, "planning-area-id": 1401044}}, {"type": "Feature", "geometry": {"type": "Point", "coordinates": [13.36017, 52.54143]}, "properties": {"id": "1031570", "name": "Kita Paradiesvögel Sparrstraße", "phone-number": "+493041997418", "places": 25, "type": "Reguläre Einrichtung", "sponsor-id": "7464", "sponsor-name": "eventus Bildung gGmbH", "street": "Sparrstr. 26", "zip-code": 13353, "lat": 52.54143, "lon": 13.36017, "planning-area-id": 1401047}}, {"type": "Feature", "geometry": {"type": "Point", "coordinates": [13.34336, 52.55623]}, "properties": {"id": "1031590", "name": "Kita Primavera", "phone-number": "+493060944034", "places": 25, "type": "Reguläre Einrichtung", "sponsor-id": "7877", "sponsor-name": "Primavera e. V.", "street": "Glasgower Str. 25", "zip-code": 13349, "lat": 52.55623, "lon": 13.34336, "planning-area-id": 1400939}}, {"type": "Feature", "geometry": {"type": "Point", "coordinates": [13.39097, 52.55453]},